{"title": "Heathrow Airport", "url": "https://en.wikipedia.org/wiki/?curid=13595", "coordinates": {"latitude": 51.4775, "longitude": -0.46139}}
{"title": "Los Angeles International Airport", "url": "https://en.wikipedia.org/wiki/?curid=18131", "coordinates": {"latitude": 33.9425, "longitude": -118.40806}}
{"title": "Amsterdam Airport Schiphol", "url": "https://en.wikipedia.org/wiki/?curid=28721", "coordinates": {"latitude": 52.3, "longitude": 4.765}}
{"title": "Tallinn Airport", "url": "https://en.wikipedia.org/wiki/?curid=31611", "coordinates": {"latitude": 59.41333, "longitude": 24.8325}}
{"title": "Dulles International Airport", "url": "https://en.wikipedia.org/wiki/?curid=33591", "coordinates": {"latitude": 38.94444, "longitude": -77.45583}}
{"title": "Baltimore/Washington International Airport", "url": "https://en.wikipedia.org/wiki/?curid=48314", "coordinates": {"latitude": 39.17528, "longitude": -76.66833}}
{"title": "Athens International Airport", "url": "https://en.wikipedia.org/wiki/?curid=48962", "coordinates": {"latitude": 37.93639, "longitude": 23.94722}}
{"title": "Viracopos International Airport", "url": "https://en.wikipedia.org/wiki/?curid=63515", "coordinates": {"latitude": -23.00694, "longitude": -47.13444}}
{"title": "London Stansted Airport", "url": "https://en.wikipedia.org/wiki/?curid=65456", "coordinates": {"latitude": 51.885, "longitude": 0.235}}
{"title": "Stansted Airport", "url": "https://en.wikipedia.org/wiki/?curid=74583", "coordinates": {"latitude": 51.885, "longitude": 0.235}}
{"title": "Van Nuys Airport", "url": "https://en.wikipedia.org/wiki/?curid=81921", "coordinates": {"latitude": 34.20972, "longitude": -118.49}}
{"title": "Luis Muñoz Marín International Airport", "url": "https://en.wikipedia.org/wiki/?curid=83027", "coordinates": {"latitude": 18.43917, "longitude": -66.00194}}
{"title": "Tenerife airport disaster", "url": "https://en.wikipedia.org/wiki/?curid=92734", "coordinates": {"latitude": 28.48165, "longitude": -16.3384}}
{"title": "John F. Kennedy International Airport", "url": "https://en.wikipedia.org/wiki/?curid=97218", "coordinates": {"latitude": 40.63972, "longitude": -73.77889}}
{"title": "Mexico City International Airport", "url": "https://en.wikipedia.org/wiki/?curid=99808", "coordinates": {"latitude": 19.43611, "longitude": -99.07194}}
{"title": "Madrid–Barajas Airport", "url": "https://en.wikipedia.org/wiki/?curid=100383", "coordinates": {"latitude": 40.47222, "longitude": -3.56083}}
{"title": "Ezeiza International Airport", "url": "https://en.wikipedia.org/wiki/?curid=100915", "coordinates": {"latitude": -34.82222, "longitude": -58.53583}}
{"title": "Croydon Airport", "url": "https://en.wikipedia.org/wiki/?curid=101216", "coordinates": {"latitude": 51.35639, "longitude": -0.11722}}
{"title": "Gatwick Airport", "url": "https://en.wikipedia.org/wiki/?curid=101359", "coordinates": {"latitude": 51.14806, "longitude": -0.19028}}
{"title": "Tocumen International Airport", "url": "https://en.wikipedia.org/wiki/?curid=101615", "coordinates": {"latitude": 9.07139, "longitude": -79.38361}}
{"title": "Jorge Chávez International Airport", "url": "https://en.wikipedia.org/wiki/?curid=102000", "coordinates": {"latitude": -12.02194, "longitude": -77.11444}}
{"title": "José Martí International Airport", "url": "https://en.wikipedia.org/wiki/?curid=102421", "coordinates": {"latitude": 22.98917, "longitude": -82.40917}}
{"title": "Arturo Merino Benítez International Airport", "url": "https://en.wikipedia.org/wiki/?curid=105002", "coordinates": {"latitude": -33.39278, "longitude": -70.78556}}
{"title": "Tijuana International Airport", "url": "https://en.wikipedia.org/wiki/?curid=105810", "coordinates": {"latitude": 32.54083, "longitude": -116.97}}
{"title": "Charles de Gaulle Airport", "url": "https://en.wikipedia.org/wiki/?curid=105927", "coordinates": {"latitude": 49.00972, "longitude": 2.54778}}
{"title": "Kuala Lumpur International Airport", "url": "https://en.wikipedia.org/wiki/?curid=105963", "coordinates": {"latitude": 2.74333, "longitude": 101.69806}}
{"title": "O. R. Tambo International Airport", "url": "https://en.wikipedia.org/wiki/?curid=106491", "coordinates": {"latitude": -26.13333, "longitude": 28.25}}
{"title": "Ben Gurion Airport", "url": "https://en.wikipedia.org/wiki/?curid=113149", "coordinates": {"latitude": 32.00944, "longitude": 34.88278}}
{"title": "Phoenix Sky Harbor International Airport", "url": "https://en.wikipedia.org/wiki/?curid=113691", "coordinates": {"latitude": 33.43417, "longitude": -112.01167}}
{"title": "Miami International Airport", "url": "https://en.wikipedia.org/wiki/?curid=128968", "coordinates": {"latitude": 25.79333, "longitude": -80.29056}}
{"title": "Lihue Airport", "url": "https://en.wikipedia.org/wiki/?curid=134972", "coordinates": {"latitude": 21.97611, "longitude": -159.33889}}
{"title": "Lester B. Pearson International Airport", "url": "https://en.wikipedia.org/wiki/?curid=139203", "coordinates": {"latitude": 43.67667, "longitude": -79.63056}}
{"title": "Adelaide Airport", "url": "https://en.wikipedia.org/wiki/?curid=140465", "coordinates": {"latitude": -34.945, "longitude": 138.53056}}
{"title": "Helsinki Airport", "url": "https://en.wikipedia.org/wiki/?curid=141541", "coordinates": {"latitude": 60.31722, "longitude": 24.96333}}
{"title": "Jomo Kenyatta International Airport", "url": "https://en.wikipedia.org/wiki/?curid=142547", "coordinates": {"latitude": -1.31861, "longitude": 36.92583}}
{"title": "Indira Gandhi International Airport", "url": "https://en.wikipedia.org/wiki/?curid=143494", "coordinates": {"latitude": 28.56861, "longitude": 77.11222}}
{"title": "Tunis–Carthage International Airport", "url": "https://en.wikipedia.org/wiki/?curid=144160", "coordinates": {"latitude": 36.85111, "longitude": 10.22722}}
{"title": "Tucson International Airport", "url": "https://en.wikipedia.org/wiki/?curid=144803", "coordinates": {"latitude": 32.11611, "longitude": -110.94111}}
{"title": "Edinburgh International Airport", "url": "https://en.wikipedia.org/wiki/?curid=145318", "coordinates": {"latitude": 55.95, "longitude": -3.3725}}
{"title": "Marrakesh Menara Airport", "url": "https://en.wikipedia.org/wiki/?curid=146241", "coordinates": {"latitude": 31.60694, "longitude": -8.03639}}
{"title": "San Jose International Airport", "url": "https://en.wikipedia.org/wiki/?curid=148561", "coordinates": {"latitude": 37.36278, "longitude": -121.92917}}
{"title": "George Bush Intercontinental Airport", "url": "https://en.wikipedia.org/wiki/?curid=149577", "coordinates": {"latitude": 29.98444, "longitude": -95.34139}}
{"title": "Kilimanjaro International Airport", "url": "https://en.wikipedia.org/wiki/?curid=150114", "coordinates": {"latitude": -3.42944, "longitude": 37.07444}}
{"title": "George Bush International Airport", "url": "https://en.wikipedia.org/wiki/?curid=150193", "coordinates": {"latitude": 29.98444, "longitude": -95.34139}}
{"title": "Josep Tarradellas Barcelona–El Prat Airport", "url": "https://en.wikipedia.org/wiki/?curid=151518", "coordinates": {"latitude": 41.29694, "longitude": 2.07833}}
{"title": "Portland International Airport", "url": "https://en.wikipedia.org/wiki/?curid=152498", "coordinates": {"latitude": 45.58861, "longitude": -122.5975}}
{"title": "Hector International Airport", "url": "https://en.wikipedia.org/wiki/?curid=152897", "coordinates": {"latitude": 46.92056, "longitude": -96.81556}}
{"title": "Macau International Airport", "url": "https://en.wikipedia.org/wiki/?curid=153556", "coordinates": {"latitude": 22.14944, "longitude": 113.59139}}
{"title": "Henry E. Rohlsen Airport", "url": "https://en.wikipedia.org/wiki/?curid=154053", "coordinates": {"latitude": 17.70444, "longitude": -64.80167}}
{"title": "Dubai International Airport", "url": "https://en.wikipedia.org/wiki/?curid=154742", "coordinates": {"latitude": 25.25278, "longitude": 55.36444}}
{"title": "Bauerfield International Airport", "url": "https://en.wikipedia.org/wiki/?curid=155502", "coordinates": {"latitude": -17.69917, "longitude": 168.31972}}
{"title": "Buyant-Ukhaa International Airport", "url": "https://en.wikipedia.org/wiki/?curid=156105", "coordinates": {"latitude": 47.84306, "longitude": 106.76639}}
{"title": "Queen Beatrix International Airport", "url": "https://en.wikipedia.org/wiki/?curid=156767", "coordinates": {"latitude": 12.50139, "longitude": -70.01528}}
{"title": "Mercedita International Airport", "url": "https://en.wikipedia.org/wiki/?curid=157477", "coordinates": {"latitude": 18.00833, "longitude": -66.56306}}
{"title": "Frankfurt–Hahn Airport", "url": "https://en.wikipedia.org/wiki/?curid=158567", "coordinates": {"latitude": 49.94833, "longitude": 7.26417}}
{"title": "Vienna International Airport", "url": "https://en.wikipedia.org/wiki/?curid=159864", "coordinates": {"latitude": 48.11083, "longitude": 16.57083}}
{"title": "Atatürk Airport", "url": "https://en.wikipedia.org/wiki/?curid=160515", "coordinates": {"latitude": 40.97611, "longitude": 28.81417}}
{"title": "Gregorio Luperón International Airport", "url": "https://en.wikipedia.org/wiki/?curid=161265", "coordinates": {"latitude": 19.75778, "longitude": -70.57}}
{"title": "Kotoka International Airport", "url": "https://en.wikipedia.org/wiki/?curid=161756", "coordinates": {"latitude": 5.604667, "longitude": -0.167389}}
{"title": "Manchester (United Kingdom) Airport", "url": "https://en.wikipedia.org/wiki/?curid=161786", "coordinates": {"latitude": 53.35389, "longitude": -2.275}}
{"title": "Baghdad International Airport", "url": "https://en.wikipedia.org/wiki/?curid=162172", "coordinates": {"latitude": 33.2625, "longitude": 44.23444}}
{"title": "Helsinki-Vantaa International Airport", "url": "https://en.wikipedia.org/wiki/?curid=162844", "coordinates": {"latitude": 60.31722, "longitude": 24.96333}}
{"title": "Hewanorra International Airport", "url": "https://en.wikipedia.org/wiki/?curid=162918", "coordinates": {"latitude": 13.73333, "longitude": -60.9525}}
{"title": "Ernesto Cortissoz International Airport", "url": "https://en.wikipedia.org/wiki/?curid=163575", "coordinates": {"latitude": 10.88944, "longitude": -74.78056}}
{"title": "Stockholm Arlanda Airport", "url": "https://en.wikipedia.org/wiki/?curid=164050", "coordinates": {"latitude": 59.65194, "longitude": 17.91861}}
{"title": "Arlanda Airport", "url": "https://en.wikipedia.org/wiki/?curid=164051", "coordinates": {"latitude": 59.65194, "longitude": 17.91861}}
{"title": "Liverpool John Lennon Airport", "url": "https://en.wikipedia.org/wiki/?curid=164508", "coordinates": {"latitude": 53.33361, "longitude": -2.84972}}
{"title": "Incheon International Airport", "url": "https://en.wikipedia.org/wiki/?curid=165522", "coordinates": {"latitude": 37.46333, "longitude": 126.44}}
{"title": "Vilnius Airport", "url": "https://en.wikipedia.org/wiki/?curid=166489", "coordinates": {"latitude": 54.63694, "longitude": 25.28778}}
{"title": "Shannon Airport", "url": "https://en.wikipedia.org/wiki/?curid=168937", "coordinates": {"latitude": 52.70194, "longitude": -8.92472}}
{"title": "Eindhoven Airport", "url": "https://en.wikipedia.org/wiki/?curid=169162", "coordinates": {"latitude": 51.45, "longitude": 5.37444}}
{"title": "Albany International Airport", "url": "https://en.wikipedia.org/wiki/?curid=170609", "coordinates": {"latitude": 42.74917, "longitude": -73.80194}}
{"title": "EuroAirport Basel Mulhouse Freiburg", "url": "https://en.wikipedia.org/wiki/?curid=171633", "coordinates": {"latitude": 47.59, "longitude": 7.52917}}
{"title": "Galway Airport", "url": "https://en.wikipedia.org/wiki/?curid=172960", "coordinates": {"latitude": 53.30028, "longitude": -8.94111}}
{"title": "Vancouver International Airport", "url": "https://en.wikipedia.org/wiki/?curid=177015", "coordinates": {"latitude": 49.19472, "longitude": -123.18389}}
{"title": "Greater Moncton Roméo LeBlanc International Airport", "url": "https://en.wikipedia.org/wiki/?curid=177053", "coordinates": {"latitude": 46.11611, "longitude": -64.67861}}
{"title": "London Gatwick International Airport", "url": "https://en.wikipedia.org/wiki/?curid=179074", "coordinates": {"latitude": 51.14806, "longitude": -0.19028}}
{"title": "Molde Airport", "url": "https://en.wikipedia.org/wiki/?curid=181250", "coordinates": {"latitude": 62.74472, "longitude": 7.2625}}
{"title": "Molde Aaro Airport", "url": "https://en.wikipedia.org/wiki/?curid=181266", "coordinates": {"latitude": 62.74472, "longitude": 7.2625}}
{"title": "Ronald Reagan Washington National Airport", "url": "https://en.wikipedia.org/wiki/?curid=181392", "coordinates": {"latitude": 38.85222, "longitude": -77.03778}}
{"title": "Heathrow airport", "url": "https://en.wikipedia.org/wiki/?curid=182647", "coordinates": {"latitude": 51.4775, "longitude": -0.46139}}
{"title": "Rafael Hernández Airport", "url": "https://en.wikipedia.org/wiki/?curid=185877", "coordinates": {"latitude": 18.495, "longitude": -67.12944}}
{"title": "Kansai International Airport", "url": "https://en.wikipedia.org/wiki/?curid=190972", "coordinates": {"latitude": 34.43056, "longitude": 135.23028}}
{"title": "Kan'sai International Airport", "url": "https://en.wikipedia.org/wiki/?curid=193320", "coordinates": {"latitude": 34.43056, "longitude": 135.23028}}
{"title": "Kastrup Airport", "url": "https://en.wikipedia.org/wiki/?curid=194881", "coordinates": {"latitude": 55.61806, "longitude": 12.65611}}
{"title": "Copenhagen Airport", "url": "https://en.wikipedia.org/wiki/?curid=194884", "coordinates": {"latitude": 55.61806, "longitude": 12.65611}}
{"title": "Kjeller Airport", "url": "https://en.wikipedia.org/wiki/?curid=194957", "coordinates": {"latitude": 59.96944, "longitude": 11.03889}}
{"title": "BWI Airport", "url": "https://en.wikipedia.org/wiki/?curid=199667", "coordinates": {"latitude": 39.17528, "longitude": -76.66833}}
{"title": "Stavanger Airport", "url": "https://en.wikipedia.org/wiki/?curid=202448", "coordinates": {"latitude": 58.87667, "longitude": 5.63778}}
{"title": "Murcia–San Javier Airport", "url": "https://en.wikipedia.org/wiki/?curid=204409", "coordinates": {"latitude": 37.77472, "longitude": -0.81222}}
{"title": "Saddam International Airport", "url": "https://en.wikipedia.org/wiki/?curid=205926", "coordinates": {"latitude": 33.2625, "longitude": 44.23444}}
{"title": "Baghdad airport", "url": "https://en.wikipedia.org/wiki/?curid=206079", "coordinates": {"latitude": 33.2625, "longitude": 44.23444}}
{"title": "Luton Airport", "url": "https://en.wikipedia.org/wiki/?curid=206934", "coordinates": {"latitude": 51.87472, "longitude": -0.36833}}
{"title": "Logan International Airport", "url": "https://en.wikipedia.org/wiki/?curid=211579", "coordinates": {"latitude": 42.36306, "longitude": -71.00639}}
{"title": "Dorado Airport", "url": "https://en.wikipedia.org/wiki/?curid=218597", "coordinates": {"latitude": 18.46444, "longitude": -66.2925}}
{"title": "Fernando Luis Ribas Dominicci Airport", "url": "https://en.wikipedia.org/wiki/?curid=218699", "coordinates": {"latitude": 18.45667, "longitude": -66.09833}}
{"title": "Antonio Rivera Rodríguez Airport", "url": "https://en.wikipedia.org/wiki/?curid=219434", "coordinates": {"latitude": 18.13472, "longitude": -65.49389}}
{"title": "Alexander Hamilton International Airport", "url": "https://en.wikipedia.org/wiki/?curid=221981", "coordinates": {"latitude": 17.70444, "longitude": -64.80167}}
{"title": "Henry E. Rohlson International Airport", "url": "https://en.wikipedia.org/wiki/?curid=221982", "coordinates": {"latitude": 17.70444, "longitude": -64.80167}}
{"title": "Henry E. Rolhson International Airport", "url": "https://en.wikipedia.org/wiki/?curid=222832", "coordinates": {"latitude": 17.70444, "longitude": -64.80167}}
{"title": "Jorge Chavez International Airport", "url": "https://en.wikipedia.org/wiki/?curid=223941", "coordinates": {"latitude": -12.02194, "longitude": -77.11444}}
{"title": "London Heathrow International Airport", "url": "https://en.wikipedia.org/wiki/?curid=228127", "coordinates": {"latitude": 51.4775, "longitude": -0.46139}}
{"title": "London City Airport", "url": "https://en.wikipedia.org/wiki/?curid=239680", "coordinates": {"latitude": 51.50528, "longitude": 0.05528}}
{"title": "Clinton National Airport", "url": "https://en.wikipedia.org/wiki/?curid=241584", "coordinates": {"latitude": 34.73, "longitude": -92.22}}
{"title": "London Heathrow airport", "url": "https://en.wikipedia.org/wiki/?curid=242269", "coordinates": {"latitude": 51.4775, "longitude": -0.46139}}
{"title": "Léopold Sédar Senghor International Airport", "url": "https://en.wikipedia.org/wiki/?curid=242627", "coordinates": {"latitude": 14.73944, "longitude": -17.49}}
{"title": "Frankfurt Airport", "url": "https://en.wikipedia.org/wiki/?curid=248285", "coordinates": {"latitude": 50.03333, "longitude": 8.57056}}
{"title": "Ministro Pistarini International Airport", "url": "https://en.wikipedia.org/wiki/?curid=248418", "coordinates": {"latitude": -34.82222, "longitude": -58.53583}}
{"title": "Leonardo da Vinci–Fiumicino Airport", "url": "https://en.wikipedia.org/wiki/?curid=248428", "coordinates": {"latitude": 41.80028, "longitude": 12.23889}}
{"title": "Hartsfield–Jackson Atlanta International Airport", "url": "https://en.wikipedia.org/wiki/?curid=248446", "coordinates": {"latitude": 33.63667, "longitude": -84.42806}}
{"title": "O'Hare International Airport", "url": "https://en.wikipedia.org/wiki/?curid=248449", "coordinates": {"latitude": 41.97861, "longitude": -87.90472}}
{"title": "Hong Kong International Airport", "url": "https://en.wikipedia.org/wiki/?curid=248457", "coordinates": {"latitude": 22.30889, "longitude": 113.91444}}
{"title": "William P. Hobby Airport", "url": "https://en.wikipedia.org/wiki/?curid=248473", "coordinates": {"latitude": 29.64556, "longitude": -95.27889}}
{"title": "Dallas Fort Worth International Airport", "url": "https://en.wikipedia.org/wiki/?curid=248480", "coordinates": {"latitude": 32.89694, "longitude": -97.03806}}
{"title": "Newark Liberty International Airport", "url": "https://en.wikipedia.org/wiki/?curid=248492", "coordinates": {"latitude": 40.6925, "longitude": -74.16861}}
{"title": "LaGuardia Airport", "url": "https://en.wikipedia.org/wiki/?curid=248547", "coordinates": {"latitude": 40.775, "longitude": -73.875}}
{"title": "Molde Årø Airport", "url": "https://en.wikipedia.org/wiki/?curid=248652", "coordinates": {"latitude": 62.74472, "longitude": 7.2625}}
{"title": "Oslo Gardermoen Airport", "url": "https://en.wikipedia.org/wiki/?curid=248664", "coordinates": {"latitude": 60.20278, "longitude": 11.08389}}
{"title": "Ellington Airport (Texas)", "url": "https://en.wikipedia.org/wiki/?curid=249291", "coordinates": {"latitude": 29.60722, "longitude": -95.15889}}
{"title": "Midway International Airport", "url": "https://en.wikipedia.org/wiki/?curid=249627", "coordinates": {"latitude": 41.78611, "longitude": -87.7525}}
{"title": "Long Island MacArthur Airport", "url": "https://en.wikipedia.org/wiki/?curid=249689", "coordinates": {"latitude": 40.79528, "longitude": -73.10028}}
{"title": "Westchester County Airport", "url": "https://en.wikipedia.org/wiki/?curid=249690", "coordinates": {"latitude": 41.06694, "longitude": -73.7075}}
{"title": "Stewart International Airport", "url": "https://en.wikipedia.org/wiki/?curid=249697", "coordinates": {"latitude": 41.50417, "longitude": -74.10472}}
{"title": "Dulles Washington Airport", "url": "https://en.wikipedia.org/wiki/?curid=249732", "coordinates": {"latitude": 38.94444, "longitude": -77.45583}}
{"title": "Blackbushe Airport", "url": "https://en.wikipedia.org/wiki/?curid=249743", "coordinates": {"latitude": 51.32389, "longitude": -0.8475}}
{"title": "Baltimore–Washington International Airport", "url": "https://en.wikipedia.org/wiki/?curid=249911", "coordinates": {"latitude": 39.17528, "longitude": -76.66833}}
{"title": "Stavanger Airport Sola", "url": "https://en.wikipedia.org/wiki/?curid=250084", "coordinates": {"latitude": 58.87667, "longitude": 5.63778}}
{"title": "Fiuminicio International Airport", "url": "https://en.wikipedia.org/wiki/?curid=250210", "coordinates": {"latitude": 41.80028, "longitude": 12.23889}}
{"title": "Ronald Reagan National Airport", "url": "https://en.wikipedia.org/wiki/?curid=250445", "coordinates": {"latitude": 38.85222, "longitude": -77.03778}}
{"title": "John Wayne Airport", "url": "https://en.wikipedia.org/wiki/?curid=250456", "coordinates": {"latitude": 33.67556, "longitude": -117.86833}}
{"title": "San Francisco International Airport", "url": "https://en.wikipedia.org/wiki/?curid=250462", "coordinates": {"latitude": 37.61889, "longitude": -122.375}}
{"title": "Oakland International Airport", "url": "https://en.wikipedia.org/wiki/?curid=250472", "coordinates": {"latitude": 37.72139, "longitude": -122.22083}}
{"title": "Hollywood Burbank Airport", "url": "https://en.wikipedia.org/wiki/?curid=250473", "coordinates": {"latitude": 34.20056, "longitude": -118.35861}}
{"title": "Burbank-Glendale-Pasadena Airport", "url": "https://en.wikipedia.org/wiki/?curid=250474", "coordinates": {"latitude": 34.20056, "longitude": -118.35861}}
{"title": "Long Beach Airport", "url": "https://en.wikipedia.org/wiki/?curid=250476", "coordinates": {"latitude": 33.81778, "longitude": -118.15167}}
{"title": "Ontario International Airport", "url": "https://en.wikipedia.org/wiki/?curid=250477", "coordinates": {"latitude": 34.05611, "longitude": -117.60111}}
{"title": "Oxnard Airport", "url": "https://en.wikipedia.org/wiki/?curid=250482", "coordinates": {"latitude": 34.20083, "longitude": -119.20722}}
{"title": "Orly Airport", "url": "https://en.wikipedia.org/wiki/?curid=250493", "coordinates": {"latitude": 48.72333, "longitude": 2.37944}}
{"title": "Lt. General Edward Lawrence Logan International Airport", "url": "https://en.wikipedia.org/wiki/?curid=250557", "coordinates": {"latitude": 42.36306, "longitude": -71.00639}}
{"title": "Schiphol airport", "url": "https://en.wikipedia.org/wiki/?curid=251121", "coordinates": {"latitude": 52.3, "longitude": 4.765}}
{"title": "Charles de Gaulle airport", "url": "https://en.wikipedia.org/wiki/?curid=251139", "coordinates": {"latitude": 49.00972, "longitude": 2.54778}}
{"title": "Frankfurt airport", "url": "https://en.wikipedia.org/wiki/?curid=251164", "coordinates": {"latitude": 50.03333, "longitude": 8.57056}}
{"title": "Zurich Airport", "url": "https://en.wikipedia.org/wiki/?curid=253102", "coordinates": {"latitude": 47.46472, "longitude": 8.54917}}
{"title": "La Guardia Airport", "url": "https://en.wikipedia.org/wiki/?curid=253105", "coordinates": {"latitude": 40.775, "longitude": -73.875}}
{"title": "Hartsfield International Airport", "url": "https://en.wikipedia.org/wiki/?curid=253109", "coordinates": {"latitude": 33.63667, "longitude": -84.42806}}
{"title": "Luis Muñoz Marin International Airport", "url": "https://en.wikipedia.org/wiki/?curid=253117", "coordinates": {"latitude": 18.43917, "longitude": -66.00194}}
{"title": "Charles De Gaulle International Airport", "url": "https://en.wikipedia.org/wiki/?curid=257168", "coordinates": {"latitude": 49.00972, "longitude": 2.54778}}
{"title": "Fresno Yosemite International Airport", "url": "https://en.wikipedia.org/wiki/?curid=262470", "coordinates": {"latitude": 36.77667, "longitude": -119.71889}}
{"title": "Gerald R. Ford International Airport", "url": "https://en.wikipedia.org/wiki/?curid=262473", "coordinates": {"latitude": 42.88083, "longitude": -85.52278}}
{"title": "Meadows Field Airport", "url": "https://en.wikipedia.org/wiki/?curid=262478", "coordinates": {"latitude": 35.43389, "longitude": -119.05778}}
{"title": "Cleveland Hopkins International Airport", "url": "https://en.wikipedia.org/wiki/?curid=262484", "coordinates": {"latitude": 41.41167, "longitude": -81.84972}}
{"title": "MBS International Airport", "url": "https://en.wikipedia.org/wiki/?curid=262488", "coordinates": {"latitude": 43.53278, "longitude": -84.07972}}
{"title": "Pittsburgh International Airport", "url": "https://en.wikipedia.org/wiki/?curid=262525", "coordinates": {"latitude": 40.496, "longitude": -80.246}}
{"title": "Harry Reid International Airport", "url": "https://en.wikipedia.org/wiki/?curid=262540", "coordinates": {"latitude": 36.08, "longitude": -115.15222}}
{"title": "Austin–Bergstrom International Airport", "url": "https://en.wikipedia.org/wiki/?curid=262542", "coordinates": {"latitude": 30.19444, "longitude": -97.67}}
{"title": "Bergstrom International Airport", "url": "https://en.wikipedia.org/wiki/?curid=262548", "coordinates": {"latitude": 30.19444, "longitude": -97.67}}
{"title": "Philadelphia International Airport", "url": "https://en.wikipedia.org/wiki/?curid=262559", "coordinates": {"latitude": 39.87194, "longitude": -75.24111}}
{"title": "Tampa International Airport", "url": "https://en.wikipedia.org/wiki/?curid=262567", "coordinates": {"latitude": 27.97972, "longitude": -82.53472}}
{"title": "Houston Intercontinental Airport", "url": "https://en.wikipedia.org/wiki/?curid=263582", "coordinates": {"latitude": 29.98444, "longitude": -95.34139}}
{"title": "Dallas-Ft. Worth International Airport", "url": "https://en.wikipedia.org/wiki/?curid=263583", "coordinates": {"latitude": 32.89694, "longitude": -97.03806}}
{"title": "Dorval International Airport", "url": "https://en.wikipedia.org/wiki/?curid=263590", "coordinates": {"latitude": 45.47056, "longitude": -73.74083}}
{"title": "Montréal–Trudeau International Airport", "url": "https://en.wikipedia.org/wiki/?curid=263611", "coordinates": {"latitude": 45.47056, "longitude": -73.74083}}
{"title": "Minneapolis–Saint Paul International Airport", "url": "https://en.wikipedia.org/wiki/?curid=263616", "coordinates": {"latitude": 44.88194, "longitude": -93.22167}}
{"title": "Minneapolis/Saint Paul International Airport", "url": "https://en.wikipedia.org/wiki/?curid=263617", "coordinates": {"latitude": 44.88194, "longitude": -93.22167}}
{"title": "Orlando International Airport", "url": "https://en.wikipedia.org/wiki/?curid=263637", "coordinates": {"latitude": 28.42944, "longitude": -81.30889}}
{"title": "Memphis International Airport", "url": "https://en.wikipedia.org/wiki/?curid=263638", "coordinates": {"latitude": 35.0425, "longitude": -89.97667}}
{"title": "Bradley International Airport", "url": "https://en.wikipedia.org/wiki/?curid=263642", "coordinates": {"latitude": 41.93917, "longitude": -72.68333}}
{"title": "Detroit Metropolitian Wayne County Airport", "url": "https://en.wikipedia.org/wiki/?curid=263644", "coordinates": {"latitude": 42.2125, "longitude": -83.35333}}
{"title": "Denver International Airport", "url": "https://en.wikipedia.org/wiki/?curid=263648", "coordinates": {"latitude": 39.86167, "longitude": -104.67306}}
{"title": "San Diego International Airport", "url": "https://en.wikipedia.org/wiki/?curid=263650", "coordinates": {"latitude": 32.73361, "longitude": -117.18972}}
{"title": "Louis Armstrong New Orleans International Airport", "url": "https://en.wikipedia.org/wiki/?curid=263651", "coordinates": {"latitude": 29.99333, "longitude": -90.25806}}
{"title": "Newark International Airport", "url": "https://en.wikipedia.org/wiki/?curid=263652", "coordinates": {"latitude": 40.6925, "longitude": -74.16861}}
{"title": "Newark Liberty Airport", "url": "https://en.wikipedia.org/wiki/?curid=263653", "coordinates": {"latitude": 40.6925, "longitude": -74.16861}}
{"title": "Liberty International Airport", "url": "https://en.wikipedia.org/wiki/?curid=263654", "coordinates": {"latitude": 40.6925, "longitude": -74.16861}}
{"title": "La Guardia International Airport", "url": "https://en.wikipedia.org/wiki/?curid=263761", "coordinates": {"latitude": 40.775, "longitude": -73.875}}
{"title": "London International Airport", "url": "https://en.wikipedia.org/wiki/?curid=264093", "coordinates": {"latitude": 43.0331, "longitude": -81.1511}}
{"title": "Sheremetyevo International Airport", "url": "https://en.wikipedia.org/wiki/?curid=264213", "coordinates": {"latitude": 55.97278, "longitude": 37.41472}}
{"title": "Montreal-Dorval International Airport", "url": "https://en.wikipedia.org/wiki/?curid=264219", "coordinates": {"latitude": 45.47056, "longitude": -73.74083}}
{"title": "Louisville International Airport", "url": "https://en.wikipedia.org/wiki/?curid=264229", "coordinates": {"latitude": 38.17417, "longitude": -85.73639}}
{"title": "St. Louis Lambert International Airport", "url": "https://en.wikipedia.org/wiki/?curid=264236", "coordinates": {"latitude": 38.74722, "longitude": -90.36139}}
{"title": "Salt Lake City International Airport", "url": "https://en.wikipedia.org/wiki/?curid=264241", "coordinates": {"latitude": 40.78833, "longitude": -111.97778}}
{"title": "Seattle–Tacoma International Airport", "url": "https://en.wikipedia.org/wiki/?curid=264272", "coordinates": {"latitude": 47.44889, "longitude": -122.30944}}
{"title": "Seattle-Tacoma Airport", "url": "https://en.wikipedia.org/wiki/?curid=264274", "coordinates": {"latitude": 47.44889, "longitude": -122.30944}}
{"title": "Daniel K. Inouye International Airport", "url": "https://en.wikipedia.org/wiki/?curid=264285", "coordinates": {"latitude": 21.31861, "longitude": -157.9225}}
{"title": "Cincinnati-Northern Kentucky International Airport", "url": "https://en.wikipedia.org/wiki/?curid=264292", "coordinates": {"latitude": 39.04889, "longitude": -84.66778}}
{"title": "Charlotte Douglas International Airport", "url": "https://en.wikipedia.org/wiki/?curid=264293", "coordinates": {"latitude": 35.21389, "longitude": -80.94306}}
{"title": "Schipol Airport", "url": "https://en.wikipedia.org/wiki/?curid=264352", "coordinates": {"latitude": 52.3, "longitude": 4.765}}
{"title": "Cincinnati/Northern Kentucky International Airport", "url": "https://en.wikipedia.org/wiki/?curid=264379", "coordinates": {"latitude": 39.04889, "longitude": -84.66778}}
{"title": "Eugene Airport", "url": "https://en.wikipedia.org/wiki/?curid=264772", "coordinates": {"latitude": 44.12306, "longitude": -123.21861}}
{"title": "John F. Kennedy Airport", "url": "https://en.wikipedia.org/wiki/?curid=264858", "coordinates": {"latitude": 40.63972, "longitude": -73.77889}}
{"title": "Auckland Airport", "url": "https://en.wikipedia.org/wiki/?curid=265702", "coordinates": {"latitude": -37.00806, "longitude": 174.79167}}
{"title": "Schipol International Airport", "url": "https://en.wikipedia.org/wiki/?curid=266233", "coordinates": {"latitude": 52.3, "longitude": 4.765}}
{"title": "Don Mueang International Airport", "url": "https://en.wikipedia.org/wiki/?curid=266286", "coordinates": {"latitude": 13.9125, "longitude": 100.60667}}
{"title": "Chiang Mai International Airport", "url": "https://en.wikipedia.org/wiki/?curid=266300", "coordinates": {"latitude": 18.76667, "longitude": 98.9625}}
{"title": "Hat Yai International Airport", "url": "https://en.wikipedia.org/wiki/?curid=266301", "coordinates": {"latitude": 6.93306, "longitude": 100.39278}}
{"title": "Phuket International Airport", "url": "https://en.wikipedia.org/wiki/?curid=266302", "coordinates": {"latitude": 8.11306, "longitude": 98.31667}}
{"title": "Chiang Rai International Airport", "url": "https://en.wikipedia.org/wiki/?curid=266303", "coordinates": {"latitude": 19.95222, "longitude": 99.88278}}
{"title": "Sydney Airport", "url": "https://en.wikipedia.org/wiki/?curid=266313", "coordinates": {"latitude": -33.94611, "longitude": 151.17722}}
{"title": "Melbourne Airport", "url": "https://en.wikipedia.org/wiki/?curid=266317", "coordinates": {"latitude": -37.67333, "longitude": 144.84333}}
{"title": "Tullamarine International Airport", "url": "https://en.wikipedia.org/wiki/?curid=266323", "coordinates": {"latitude": -37.67333, "longitude": 144.84333}}
{"title": "Cape Town International Airport", "url": "https://en.wikipedia.org/wiki/?curid=266326", "coordinates": {"latitude": -33.96944, "longitude": 18.59722}}
{"title": "Taoyuan International Airport", "url": "https://en.wikipedia.org/wiki/?curid=266327", "coordinates": {"latitude": 25.07639, "longitude": 121.22389}}
{"title": "Norfolk International Airport", "url": "https://en.wikipedia.org/wiki/?curid=266328", "coordinates": {"latitude": 36.89472, "longitude": -76.20111}}
{"title": "Chiang Kai Shek International Airport", "url": "https://en.wikipedia.org/wiki/?curid=266332", "coordinates": {"latitude": 25.07639, "longitude": 121.22389}}
{"title": "Tullamarine Airport", "url": "https://en.wikipedia.org/wiki/?curid=266370", "coordinates": {"latitude": -37.67333, "longitude": 144.84333}}
{"title": "Durban International Airport", "url": "https://en.wikipedia.org/wiki/?curid=266537", "coordinates": {"latitude": -29.96861, "longitude": 30.94778}}
{"title": "King Phalo Airport", "url": "https://en.wikipedia.org/wiki/?curid=266540", "coordinates": {"latitude": -33.035, "longitude": 27.82139}}
{"title": "George Airport", "url": "https://en.wikipedia.org/wiki/?curid=266557", "coordinates": {"latitude": -34.00667, "longitude": 22.38083}}
{"title": "San Carlos Airport (California)", "url": "https://en.wikipedia.org/wiki/?curid=266566", "coordinates": {"latitude": 37.51194, "longitude": -122.24944}}
{"title": "Chief Dawid Stuurman International Airport", "url": "https://en.wikipedia.org/wiki/?curid=266738", "coordinates": {"latitude": -33.98472, "longitude": 25.61028}}
{"title": "John Fitzgerald Kennedy International Airport", "url": "https://en.wikipedia.org/wiki/?curid=266915", "coordinates": {"latitude": 40.63972, "longitude": -73.77889}}
{"title": "George Herbert Walker Bush Intercontinental Airport", "url": "https://en.wikipedia.org/wiki/?curid=266943", "coordinates": {"latitude": 29.98444, "longitude": -95.34139}}
{"title": "Richmond International Airport", "url": "https://en.wikipedia.org/wiki/?curid=266946", "coordinates": {"latitude": 37.505, "longitude": -77.31944}}
{"title": "Ronald Reagan-Washington National Airport", "url": "https://en.wikipedia.org/wiki/?curid=266952", "coordinates": {"latitude": 38.85222, "longitude": -77.03778}}
{"title": "Raleigh–Durham International Airport", "url": "https://en.wikipedia.org/wiki/?curid=266955", "coordinates": {"latitude": 35.87778, "longitude": -78.7875}}
{"title": "Manchester Airport", "url": "https://en.wikipedia.org/wiki/?curid=266959", "coordinates": {"latitude": 53.35389, "longitude": -2.275}}
{"title": "Munich Airport", "url": "https://en.wikipedia.org/wiki/?curid=266998", "coordinates": {"latitude": 48.35389, "longitude": 11.78611}}
{"title": "Owen Roberts International Airport", "url": "https://en.wikipedia.org/wiki/?curid=267700", "coordinates": {"latitude": 19.2925, "longitude": -81.35917}}
{"title": "Norman Manley International Airport", "url": "https://en.wikipedia.org/wiki/?curid=267703", "coordinates": {"latitude": 17.93556, "longitude": -76.7875}}
{"title": "Linate Airport", "url": "https://en.wikipedia.org/wiki/?curid=267709", "coordinates": {"latitude": 45.44944, "longitude": 9.27833}}
{"title": "Orio al Serio International Airport", "url": "https://en.wikipedia.org/wiki/?curid=267710", "coordinates": {"latitude": 45.66889, "longitude": 9.70028}}
{"title": "Venice Marco Polo Airport", "url": "https://en.wikipedia.org/wiki/?curid=267789", "coordinates": {"latitude": 45.50528, "longitude": 12.35194}}
{"title": "Fort Lauderdale–Hollywood International Airport", "url": "https://en.wikipedia.org/wiki/?curid=267832", "coordinates": {"latitude": 26.0725, "longitude": -80.15278}}
{"title": "Rhode Island T. F. Green International Airport", "url": "https://en.wikipedia.org/wiki/?curid=267865", "coordinates": {"latitude": 41.72389, "longitude": -71.42833}}
{"title": "Kai Tak Airport", "url": "https://en.wikipedia.org/wiki/?curid=267940", "coordinates": {"latitude": 22.32861, "longitude": 114.19417}}
{"title": "Louis Armstrong International Airport", "url": "https://en.wikipedia.org/wiki/?curid=268312", "coordinates": {"latitude": 29.99333, "longitude": -90.25806}}
{"title": "Norman Y. Mineta San Jose International Airport", "url": "https://en.wikipedia.org/wiki/?curid=268330", "coordinates": {"latitude": 37.36278, "longitude": -121.92917}}
{"title": "Northwest Arkansas National Airport", "url": "https://en.wikipedia.org/wiki/?curid=268332", "coordinates": {"latitude": 36.28167, "longitude": -94.30778}}
{"title": "Norman Yoshio Mineta San Jose International Airport", "url": "https://en.wikipedia.org/wiki/?curid=268334", "coordinates": {"latitude": 37.36278, "longitude": -121.92917}}
{"title": "Stapleton International Airport", "url": "https://en.wikipedia.org/wiki/?curid=268465", "coordinates": {"latitude": 39.761, "longitude": -104.892}}
{"title": "Stapleton Airport", "url": "https://en.wikipedia.org/wiki/?curid=268466", "coordinates": {"latitude": 39.761, "longitude": -104.892}}
{"title": "El Paso International Airport", "url": "https://en.wikipedia.org/wiki/?curid=269621", "coordinates": {"latitude": 31.80722, "longitude": -106.3775}}
{"title": "San Antonio International Airport", "url": "https://en.wikipedia.org/wiki/?curid=269635", "coordinates": {"latitude": 29.52667, "longitude": -98.47194}}
{"title": "Brussels Airport", "url": "https://en.wikipedia.org/wiki/?curid=269753", "coordinates": {"latitude": 50.90139, "longitude": 4.48444}}
{"title": "Québec City Jean Lesage International Airport", "url": "https://en.wikipedia.org/wiki/?curid=269780", "coordinates": {"latitude": 46.79111, "longitude": -71.39333}}
{"title": "Halifax Stanfield International Airport", "url": "https://en.wikipedia.org/wiki/?curid=269784", "coordinates": {"latitude": 44.87972, "longitude": -63.51028}}
{"title": "Indianapolis International Airport", "url": "https://en.wikipedia.org/wiki/?curid=269813", "coordinates": {"latitude": 39.71722, "longitude": -86.29444}}
{"title": "Fort Wayne International Airport", "url": "https://en.wikipedia.org/wiki/?curid=269817", "coordinates": {"latitude": 40.97833, "longitude": -85.19528}}
{"title": "St. Pete–Clearwater International Airport", "url": "https://en.wikipedia.org/wiki/?curid=269856", "coordinates": {"latitude": 27.91, "longitude": -82.6875}}
{"title": "Orlando Sanford International Airport", "url": "https://en.wikipedia.org/wiki/?curid=269868", "coordinates": {"latitude": 28.77778, "longitude": -81.2375}}
{"title": "John Glenn Columbus International Airport", "url": "https://en.wikipedia.org/wiki/?curid=269883", "coordinates": {"latitude": 39.99806, "longitude": -82.89194}}
{"title": "Stuttgart Airport", "url": "https://en.wikipedia.org/wiki/?curid=270015", "coordinates": {"latitude": 48.69, "longitude": 9.22194}}
{"title": "Jan Smuts International Airport", "url": "https://en.wikipedia.org/wiki/?curid=270027", "coordinates": {"latitude": -26.13333, "longitude": 28.25}}
{"title": "Don Muang International Airport", "url": "https://en.wikipedia.org/wiki/?curid=270028", "coordinates": {"latitude": 13.9125, "longitude": 100.60667}}
{"title": "Ted Stevens Anchorage International Airport", "url": "https://en.wikipedia.org/wiki/?curid=271087", "coordinates": {"latitude": 61.17417, "longitude": -149.99833}}
{"title": "Milwaukee Mitchell International Airport", "url": "https://en.wikipedia.org/wiki/?curid=271105", "coordinates": {"latitude": 42.94722, "longitude": -87.89667}}
{"title": "Berlin Brandenburg Airport", "url": "https://en.wikipedia.org/wiki/?curid=271709", "coordinates": {"latitude": 52.36667, "longitude": 13.50333}}
{"title": "Berlin Schönefeld Airport", "url": "https://en.wikipedia.org/wiki/?curid=271754", "coordinates": {"latitude": 52.37861, "longitude": 13.52056}}
{"title": "Berlin Tegel Airport", "url": "https://en.wikipedia.org/wiki/?curid=271834", "coordinates": {"latitude": 52.55972, "longitude": 13.28778}}
{"title": "Berlin Tempelhof Airport", "url": "https://en.wikipedia.org/wiki/?curid=271851", "coordinates": {"latitude": 52.47361, "longitude": 13.40167}}
{"title": "Heathrow International Airport", "url": "https://en.wikipedia.org/wiki/?curid=271959", "coordinates": {"latitude": 51.4775, "longitude": -0.46139}}
{"title": "Pilanesberg International Airport", "url": "https://en.wikipedia.org/wiki/?curid=272078", "coordinates": {"latitude": -25.33361, "longitude": 27.17333}}
{"title": "Bram Fischer International Airport", "url": "https://en.wikipedia.org/wiki/?curid=272083", "coordinates": {"latitude": -29.09389, "longitude": 26.30389}}
{"title": "Kimberley Airport", "url": "https://en.wikipedia.org/wiki/?curid=272084", "coordinates": {"latitude": -28.80167, "longitude": 24.76361}}
{"title": "Upington Airport", "url": "https://en.wikipedia.org/wiki/?curid=272089", "coordinates": {"latitude": -28.40111, "longitude": 21.25972}}
{"title": "Gainesville Regional Airport", "url": "https://en.wikipedia.org/wiki/?curid=272116", "coordinates": {"latitude": 29.69, "longitude": -82.27167}}
{"title": "South Cariboo Regional Airport", "url": "https://en.wikipedia.org/wiki/?curid=275580", "coordinates": {"latitude": 51.73667, "longitude": -121.33278}}
{"title": "Glasgow Airport", "url": "https://en.wikipedia.org/wiki/?curid=280312", "coordinates": {"latitude": 55.87194, "longitude": -4.43306}}
{"title": "Glasgow Valley County Airport", "url": "https://en.wikipedia.org/wiki/?curid=280342", "coordinates": {"latitude": 48.2125, "longitude": -106.61472}}
{"title": "Edinburgh Airport", "url": "https://en.wikipedia.org/wiki/?curid=280548", "coordinates": {"latitude": 55.95, "longitude": -3.3725}}
{"title": "Glasgow Prestwick Airport", "url": "https://en.wikipedia.org/wiki/?curid=282793", "coordinates": {"latitude": 55.50944, "longitude": -4.59444}}
{"title": "Henri Coandă International Airport", "url": "https://en.wikipedia.org/wiki/?curid=286401", "coordinates": {"latitude": 44.57111, "longitude": 26.085}}
{"title": "Washington Dulles Airport", "url": "https://en.wikipedia.org/wiki/?curid=286886", "coordinates": {"latitude": 38.94444, "longitude": -77.45583}}
{"title": "Gimpo International Airport", "url": "https://en.wikipedia.org/wiki/?curid=286912", "coordinates": {"latitude": 37.55806, "longitude": 126.79056}}
{"title": "Sahar International Airport", "url": "https://en.wikipedia.org/wiki/?curid=287181", "coordinates": {"latitude": 19.08861, "longitude": 72.86806}}
{"title": "Chhatrapati Shivaji Maharaj International Airport", "url": "https://en.wikipedia.org/wiki/?curid=287183", "coordinates": {"latitude": 19.08861, "longitude": 72.86806}}
{"title": "Jacksonville International Airport", "url": "https://en.wikipedia.org/wiki/?curid=287193", "coordinates": {"latitude": 30.49417, "longitude": -81.68778}}
{"title": "Key West International Airport", "url": "https://en.wikipedia.org/wiki/?curid=287201", "coordinates": {"latitude": 24.55611, "longitude": -81.75944}}
{"title": "Destin–Fort Walton Beach Airport", "url": "https://en.wikipedia.org/wiki/?curid=287462", "coordinates": {"latitude": 30.48333, "longitude": -86.52528}}
{"title": "Panama City–Bay County International Airport", "url": "https://en.wikipedia.org/wiki/?curid=287469", "coordinates": {"latitude": 30.21222, "longitude": -85.68278}}
{"title": "Palm Beach International Airport", "url": "https://en.wikipedia.org/wiki/?curid=287471", "coordinates": {"latitude": 26.6832, "longitude": -80.0956}}
{"title": "Sarasota–Bradenton International Airport", "url": "https://en.wikipedia.org/wiki/?curid=287478", "coordinates": {"latitude": 27.39556, "longitude": -82.55444}}
{"title": "Melbourne Orlando International Airport", "url": "https://en.wikipedia.org/wiki/?curid=287492", "coordinates": {"latitude": 28.10278, "longitude": -80.64528}}
{"title": "Naples Airport (Florida)", "url": "https://en.wikipedia.org/wiki/?curid=287494", "coordinates": {"latitude": 26.1525, "longitude": -81.77556}}
{"title": "Pensacola International Airport", "url": "https://en.wikipedia.org/wiki/?curid=287520", "coordinates": {"latitude": 30.47333, "longitude": -87.18667}}
{"title": "Southwest Florida International Airport", "url": "https://en.wikipedia.org/wiki/?curid=287529", "coordinates": {"latitude": 26.53611, "longitude": -81.75528}}
{"title": "Tallahassee International Airport", "url": "https://en.wikipedia.org/wiki/?curid=287975", "coordinates": {"latitude": 30.39667, "longitude": -84.35028}}
{"title": "Otopeni International Airport", "url": "https://en.wikipedia.org/wiki/?curid=288203", "coordinates": {"latitude": 44.57111, "longitude": 26.085}}
{"title": "Mohammed V International Airport", "url": "https://en.wikipedia.org/wiki/?curid=288417", "coordinates": {"latitude": 33.36722, "longitude": -7.58972}}
{"title": "Luis Munoz Marin International Airport", "url": "https://en.wikipedia.org/wiki/?curid=288488", "coordinates": {"latitude": 18.43917, "longitude": -66.00194}}
{"title": "Savannah/Hilton Head International Airport", "url": "https://en.wikipedia.org/wiki/?curid=288614", "coordinates": {"latitude": 32.1275, "longitude": -81.20222}}
{"title": "Will Rogers World Airport", "url": "https://en.wikipedia.org/wiki/?curid=290147", "coordinates": {"latitude": 35.39306, "longitude": -97.60083}}
{"title": "Tulsa International Airport", "url": "https://en.wikipedia.org/wiki/?curid=290155", "coordinates": {"latitude": 36.19833, "longitude": -95.88806}}
{"title": "Kansas City International Airport", "url": "https://en.wikipedia.org/wiki/?curid=290172", "coordinates": {"latitude": 39.2975, "longitude": -94.71389}}
{"title": "Buffalo Niagara International Airport", "url": "https://en.wikipedia.org/wiki/?curid=290177", "coordinates": {"latitude": 42.94056, "longitude": -78.73222}}
{"title": "Moscow Domodedovo Airport", "url": "https://en.wikipedia.org/wiki/?curid=291012", "coordinates": {"latitude": 55.40861, "longitude": 37.90611}}
{"title": "Gimhae International Airport", "url": "https://en.wikipedia.org/wiki/?curid=291219", "coordinates": {"latitude": 35.17944, "longitude": 128.93833}}
{"title": "Cherry Capital Airport", "url": "https://en.wikipedia.org/wiki/?curid=291221", "coordinates": {"latitude": 44.74167, "longitude": -85.58222}}
{"title": "McGhee Tyson Airport", "url": "https://en.wikipedia.org/wiki/?curid=291223", "coordinates": {"latitude": 35.81111, "longitude": -83.99389}}
{"title": "Nashville International Airport", "url": "https://en.wikipedia.org/wiki/?curid=291228", "coordinates": {"latitude": 36.12667, "longitude": -86.68194}}
{"title": "Beijing Capital International Airport", "url": "https://en.wikipedia.org/wiki/?curid=291328", "coordinates": {"latitude": 40.0725, "longitude": 116.5975}}
{"title": "Antonio B. Won Pat International Airport", "url": "https://en.wikipedia.org/wiki/?curid=291340", "coordinates": {"latitude": 13.48389, "longitude": 144.79722}}
{"title": "Birmingham Airport", "url": "https://en.wikipedia.org/wiki/?curid=291384", "coordinates": {"latitude": 52.45389, "longitude": -1.74806}}
{"title": "Birmingham–Shuttlesworth International Airport", "url": "https://en.wikipedia.org/wiki/?curid=291386", "coordinates": {"latitude": 33.56389, "longitude": -86.75222}}
{"title": "Gatwick International Airport", "url": "https://en.wikipedia.org/wiki/?curid=291403", "coordinates": {"latitude": 51.14806, "longitude": -0.19028}}
{"title": "Stansted International Airport", "url": "https://en.wikipedia.org/wiki/?curid=291404", "coordinates": {"latitude": 51.885, "longitude": 0.235}}
{"title": "General Antonio B. Won Pat International Airport", "url": "https://en.wikipedia.org/wiki/?curid=291585", "coordinates": {"latitude": 13.48389, "longitude": 144.79722}}
{"title": "Nice Côte d'Azur Airport", "url": "https://en.wikipedia.org/wiki/?curid=291627", "coordinates": {"latitude": 43.66528, "longitude": 7.215}}
{"title": "Belfast International Airport", "url": "https://en.wikipedia.org/wiki/?curid=292039", "coordinates": {"latitude": 54.6575, "longitude": -6.21583}}
{"title": "Geneva Airport", "url": "https://en.wikipedia.org/wiki/?curid=292616", "coordinates": {"latitude": 46.23756, "longitude": 6.10921}}
{"title": "Düsseldorf Airport", "url": "https://en.wikipedia.org/wiki/?curid=292633", "coordinates": {"latitude": 51.28944, "longitude": 6.76667}}
{"title": "Aberdeen Airport", "url": "https://en.wikipedia.org/wiki/?curid=293264", "coordinates": {"latitude": 57.2025, "longitude": -2.19806}}
{"title": "Southampton Airport", "url": "https://en.wikipedia.org/wiki/?curid=293463", "coordinates": {"latitude": 50.95028, "longitude": -1.35667}}
{"title": "Linate Airport disaster", "url": "https://en.wikipedia.org/wiki/?curid=293638", "coordinates": {"latitude": 45.44833, "longitude": 9.27667}}
{"title": "L.F. Wade International Airport", "url": "https://en.wikipedia.org/wiki/?curid=293765", "coordinates": {"latitude": 32.36417, "longitude": -64.67861}}
{"title": "Calgary International Airport", "url": "https://en.wikipedia.org/wiki/?curid=293781", "coordinates": {"latitude": 51.1225, "longitude": -114.01333}}
{"title": "Dublin Airport", "url": "https://en.wikipedia.org/wiki/?curid=293794", "coordinates": {"latitude": 53.42139, "longitude": -6.27}}
{"title": "Cork Airport", "url": "https://en.wikipedia.org/wiki/?curid=293805", "coordinates": {"latitude": 51.84139, "longitude": -8.49111}}
{"title": "Dublin International Airport", "url": "https://en.wikipedia.org/wiki/?curid=293809", "coordinates": {"latitude": 53.42139, "longitude": -6.27}}
{"title": "Schiphol International Airport", "url": "https://en.wikipedia.org/wiki/?curid=293914", "coordinates": {"latitude": 52.3, "longitude": 4.765}}
{"title": "George Best Belfast City Airport", "url": "https://en.wikipedia.org/wiki/?curid=294524", "coordinates": {"latitude": 54.61806, "longitude": -5.8725}}
{"title": "Greenville–Spartanburg International Airport", "url": "https://en.wikipedia.org/wiki/?curid=294532", "coordinates": {"latitude": 34.89556, "longitude": -82.21889}}
{"title": "Piedmont Triad International Airport", "url": "https://en.wikipedia.org/wiki/?curid=294534", "coordinates": {"latitude": 36.09778, "longitude": -79.93722}}
{"title": "Detroit Metropolitan Airport", "url": "https://en.wikipedia.org/wiki/?curid=294538", "coordinates": {"latitude": 42.2125, "longitude": -83.35333}}
{"title": "Columbia Metropolitian Airport", "url": "https://en.wikipedia.org/wiki/?curid=294547", "coordinates": {"latitude": 33.93889, "longitude": -81.11944}}
{"title": "Asheville Regional Airport", "url": "https://en.wikipedia.org/wiki/?curid=294550", "coordinates": {"latitude": 35.43611, "longitude": -82.54167}}
{"title": "Reno–Tahoe International Airport", "url": "https://en.wikipedia.org/wiki/?curid=294563", "coordinates": {"latitude": 39.49917, "longitude": -119.76806}}
{"title": "Yeager Airport", "url": "https://en.wikipedia.org/wiki/?curid=294568", "coordinates": {"latitude": 38.37583, "longitude": -81.59306}}
{"title": "Charleston International Airport", "url": "https://en.wikipedia.org/wiki/?curid=294579", "coordinates": {"latitude": 32.89861, "longitude": -80.04056}}
{"title": "Edmonton International Airport", "url": "https://en.wikipedia.org/wiki/?curid=294590", "coordinates": {"latitude": 53.31, "longitude": -113.57944}}
{"title": "Myrtle Beach International Airport", "url": "https://en.wikipedia.org/wiki/?curid=294604", "coordinates": {"latitude": 33.67972, "longitude": -78.92833}}
{"title": "Gulfport–Biloxi International Airport", "url": "https://en.wikipedia.org/wiki/?curid=294930", "coordinates": {"latitude": 30.40722, "longitude": -89.07}}
{"title": "L.I. MacArthur Airport", "url": "https://en.wikipedia.org/wiki/?curid=294937", "coordinates": {"latitude": 40.79528, "longitude": -73.10028}}
{"title": "Jackson–Medgar Wiley Evers International Airport", "url": "https://en.wikipedia.org/wiki/?curid=294944", "coordinates": {"latitude": 32.31111, "longitude": -90.07583}}
{"title": "Mobile Regional Airport", "url": "https://en.wikipedia.org/wiki/?curid=294952", "coordinates": {"latitude": 30.69139, "longitude": -88.24278}}
{"title": "Boise Airport", "url": "https://en.wikipedia.org/wiki/?curid=294976", "coordinates": {"latitude": 43.56444, "longitude": -116.22278}}
{"title": "Newcastle International Airport", "url": "https://en.wikipedia.org/wiki/?curid=294980", "coordinates": {"latitude": 55.03806, "longitude": -1.68972}}
{"title": "Kahului Airport", "url": "https://en.wikipedia.org/wiki/?curid=295093", "coordinates": {"latitude": 20.89861, "longitude": -156.43056}}
{"title": "Fairbanks International Airport", "url": "https://en.wikipedia.org/wiki/?curid=295107", "coordinates": {"latitude": 64.815, "longitude": -147.85639}}
{"title": "Huntsville International Airport", "url": "https://en.wikipedia.org/wiki/?curid=295341", "coordinates": {"latitude": 34.63722, "longitude": -86.775}}
{"title": "Augusta Regional Airport", "url": "https://en.wikipedia.org/wiki/?curid=295360", "coordinates": {"latitude": 33.37, "longitude": -81.96444}}
{"title": "Augusta State Airport", "url": "https://en.wikipedia.org/wiki/?curid=295380", "coordinates": {"latitude": 44.32056, "longitude": -69.79722}}
{"title": "Shanghai Hongqiao International Airport", "url": "https://en.wikipedia.org/wiki/?curid=295731", "coordinates": {"latitude": 31.19806, "longitude": 121.33639}}
{"title": "Václav Havel Airport Prague", "url": "https://en.wikipedia.org/wiki/?curid=296099", "coordinates": {"latitude": 50.1018, "longitude": 14.2632}}
{"title": "Chennai International Airport", "url": "https://en.wikipedia.org/wiki/?curid=296106", "coordinates": {"latitude": 12.98222, "longitude": 80.16361}}
{"title": "Brisbane International Airport", "url": "https://en.wikipedia.org/wiki/?curid=296375", "coordinates": {"latitude": -27.38333, "longitude": 153.11833}}
{"title": "Cairns Airport", "url": "https://en.wikipedia.org/wiki/?curid=296379", "coordinates": {"latitude": -16.88583, "longitude": 145.75528}}
{"title": "Perth Airport", "url": "https://en.wikipedia.org/wiki/?curid=296393", "coordinates": {"latitude": -31.94, "longitude": 115.965}}
{"title": "Pearson International Airport", "url": "https://en.wikipedia.org/wiki/?curid=296790", "coordinates": {"latitude": 43.67667, "longitude": -79.63056}}
{"title": "Cointrin International Airport", "url": "https://en.wikipedia.org/wiki/?curid=298073", "coordinates": {"latitude": 46.23756, "longitude": 6.10921}}
{"title": "Geneva Contrin International Airport", "url": "https://en.wikipedia.org/wiki/?curid=298074", "coordinates": {"latitude": 46.23756, "longitude": 6.10921}}
{"title": "Prestwick International Airport", "url": "https://en.wikipedia.org/wiki/?curid=298517", "coordinates": {"latitude": 55.50944, "longitude": -4.59444}}
{"title": "Kalamazoo/Battle Creek International Airport", "url": "https://en.wikipedia.org/wiki/?curid=299424", "coordinates": {"latitude": 42.235, "longitude": -85.55194}}
{"title": "El Dorado International Airport", "url": "https://en.wikipedia.org/wiki/?curid=299434", "coordinates": {"latitude": 4.70139, "longitude": -74.14694}}
{"title": "Rick Husband Amarillo International Airport", "url": "https://en.wikipedia.org/wiki/?curid=301134", "coordinates": {"latitude": 35.21944, "longitude": -101.70583}}
{"title": "Corpus Christi International Airport", "url": "https://en.wikipedia.org/wiki/?curid=301140", "coordinates": {"latitude": 27.77028, "longitude": -97.50111}}
{"title": "Colorado Springs Airport", "url": "https://en.wikipedia.org/wiki/?curid=301145", "coordinates": {"latitude": 38.80583, "longitude": -104.70083}}
{"title": "McAllen Miller International Airport", "url": "https://en.wikipedia.org/wiki/?curid=301149", "coordinates": {"latitude": 26.17583, "longitude": -98.23861}}
{"title": "Billy Bishop Toronto City Airport", "url": "https://en.wikipedia.org/wiki/?curid=301579", "coordinates": {"latitude": 43.62833, "longitude": -79.39611}}
{"title": "Valley International Airport", "url": "https://en.wikipedia.org/wiki/?curid=301828", "coordinates": {"latitude": 26.22722, "longitude": -97.655}}
{"title": "Lubbock Preston Smith International Airport", "url": "https://en.wikipedia.org/wiki/?curid=301834", "coordinates": {"latitude": 33.66361, "longitude": -101.82056}}
{"title": "Sacramento International Airport", "url": "https://en.wikipedia.org/wiki/?curid=301842", "coordinates": {"latitude": 38.69556, "longitude": -121.59083}}
{"title": "Spokane International Airport", "url": "https://en.wikipedia.org/wiki/?curid=301851", "coordinates": {"latitude": 47.62, "longitude": -117.53389}}
{"title": "Speke Airport", "url": "https://en.wikipedia.org/wiki/?curid=302232", "coordinates": {"latitude": 53.33361, "longitude": -2.84972}}
{"title": "Liverpool Airport", "url": "https://en.wikipedia.org/wiki/?curid=302233", "coordinates": {"latitude": 53.33361, "longitude": -2.84972}}
{"title": "Trondheim Airport", "url": "https://en.wikipedia.org/wiki/?curid=303381", "coordinates": {"latitude": 63.4575, "longitude": 10.92417}}
{"title": "Baton Rouge Metropolitan Airport", "url": "https://en.wikipedia.org/wiki/?curid=306336", "coordinates": {"latitude": 30.53278, "longitude": -91.15}}
{"title": "Lafayette Regional Airport", "url": "https://en.wikipedia.org/wiki/?curid=306339", "coordinates": {"latitude": 30.20528, "longitude": -91.9875}}
{"title": "Baton Rouge Metropolitian Airport", "url": "https://en.wikipedia.org/wiki/?curid=306420", "coordinates": {"latitude": 30.53278, "longitude": -91.15}}
{"title": "Ninoy Aquino International Airport", "url": "https://en.wikipedia.org/wiki/?curid=307091", "coordinates": {"latitude": 14.50833, "longitude": 121.01972}}
{"title": "Eagle County Regional Airport", "url": "https://en.wikipedia.org/wiki/?curid=307641", "coordinates": {"latitude": 39.6425, "longitude": -106.91778}}
{"title": "Telluride Regional Airport", "url": "https://en.wikipedia.org/wiki/?curid=307653", "coordinates": {"latitude": 37.95389, "longitude": -107.90861}}
{"title": "Rochester International Airport", "url": "https://en.wikipedia.org/wiki/?curid=309348", "coordinates": {"latitude": 43.90833, "longitude": -92.5}}
{"title": "Greater Rochester International Airport", "url": "https://en.wikipedia.org/wiki/?curid=309356", "coordinates": {"latitude": 43.11889, "longitude": -77.6725}}
{"title": "Harrisburg International Airport", "url": "https://en.wikipedia.org/wiki/?curid=309542", "coordinates": {"latitude": 40.19306, "longitude": -76.76333}}
{"title": "Montréal–Mirabel International Airport", "url": "https://en.wikipedia.org/wiki/?curid=311778", "coordinates": {"latitude": 45.67972, "longitude": -74.03861}}
{"title": "Mirabel International Airport", "url": "https://en.wikipedia.org/wiki/?curid=311780", "coordinates": {"latitude": 45.67972, "longitude": -74.03861}}
{"title": "Pierre Elliott Trudeau International Airport", "url": "https://en.wikipedia.org/wiki/?curid=314904", "coordinates": {"latitude": 45.47056, "longitude": -73.74083}}
{"title": "Acapulco International Airport", "url": "https://en.wikipedia.org/wiki/?curid=317155", "coordinates": {"latitude": 16.756028, "longitude": -99.751611}}
{"title": "Alvarez International Airport", "url": "https://en.wikipedia.org/wiki/?curid=317156", "coordinates": {"latitude": 16.756028, "longitude": -99.751611}}
{"title": "Laredo International Airport", "url": "https://en.wikipedia.org/wiki/?curid=317334", "coordinates": {"latitude": 27.54389, "longitude": -99.46167}}
{"title": "Jack Brooks Regional Airport", "url": "https://en.wikipedia.org/wiki/?curid=317336", "coordinates": {"latitude": 29.95083, "longitude": -94.02056}}
{"title": "Kraków John Paul II International Airport", "url": "https://en.wikipedia.org/wiki/?curid=320407", "coordinates": {"latitude": 50.07778, "longitude": 19.78472}}
{"title": "Krakow International Airport", "url": "https://en.wikipedia.org/wiki/?curid=320409", "coordinates": {"latitude": 50.07778, "longitude": 19.78472}}
{"title": "London gatwick Airport", "url": "https://en.wikipedia.org/wiki/?curid=320471", "coordinates": {"latitude": 51.14806, "longitude": -0.19028}}
{"title": "Dorval Internation Airport", "url": "https://en.wikipedia.org/wiki/?curid=320916", "coordinates": {"latitude": 45.47056, "longitude": -73.74083}}
{"title": "Tirana International Airport Nënë Tereza", "url": "https://en.wikipedia.org/wiki/?curid=322361", "coordinates": {"latitude": 41.41472, "longitude": 19.72056}}
{"title": "CKS International Airport", "url": "https://en.wikipedia.org/wiki/?curid=322387", "coordinates": {"latitude": 25.07639, "longitude": 121.22389}}
{"title": "Chiang Kai-Shek International Airport", "url": "https://en.wikipedia.org/wiki/?curid=322415", "coordinates": {"latitude": 25.07639, "longitude": 121.22389}}
{"title": "Chiang Kai-Shek Airport", "url": "https://en.wikipedia.org/wiki/?curid=322416", "coordinates": {"latitude": 25.07639, "longitude": 121.22389}}
{"title": "Chiang Kai-shek Airport", "url": "https://en.wikipedia.org/wiki/?curid=322417", "coordinates": {"latitude": 25.07639, "longitude": 121.22389}}
{"title": "Songshan Airport", "url": "https://en.wikipedia.org/wiki/?curid=322418", "coordinates": {"latitude": 25.06944, "longitude": 121.55167}}
{"title": "Taipei Sung Shan Airport", "url": "https://en.wikipedia.org/wiki/?curid=322419", "coordinates": {"latitude": 25.06944, "longitude": 121.55167}}
{"title": "Sung Shan Airport", "url": "https://en.wikipedia.org/wiki/?curid=322420", "coordinates": {"latitude": 25.06944, "longitude": 121.55167}}
{"title": "Ithaca Tompkins International Airport", "url": "https://en.wikipedia.org/wiki/?curid=323014", "coordinates": {"latitude": 42.49139, "longitude": -76.45861}}
{"title": "Miguel Hidalgo y Costilla Guadalajara International Airport", "url": "https://en.wikipedia.org/wiki/?curid=323279", "coordinates": {"latitude": 20.52167, "longitude": -103.31111}}
{"title": "Hobby Airport", "url": "https://en.wikipedia.org/wiki/?curid=327371", "coordinates": {"latitude": 29.64556, "longitude": -95.27889}}
{"title": "Fukuoka Airport", "url": "https://en.wikipedia.org/wiki/?curid=328225", "coordinates": {"latitude": 33.58444, "longitude": 130.45167}}
{"title": "Chitose airport", "url": "https://en.wikipedia.org/wiki/?curid=328275", "coordinates": {"latitude": 42.79444, "longitude": 141.66639}}
{"title": "Ellinikon International Airport", "url": "https://en.wikipedia.org/wiki/?curid=328834", "coordinates": {"latitude": 37.89833, "longitude": 23.72944}}
{"title": "JFK Airport", "url": "https://en.wikipedia.org/wiki/?curid=330418", "coordinates": {"latitude": 40.63972, "longitude": -73.77889}}
{"title": "Falcone Borsellino Airport", "url": "https://en.wikipedia.org/wiki/?curid=333233", "coordinates": {"latitude": 38.18194, "longitude": 13.09944}}
{"title": "Punta Raisi Airport", "url": "https://en.wikipedia.org/wiki/?curid=333236", "coordinates": {"latitude": 38.18194, "longitude": 13.09944}}
{"title": "Falcone-Borsellino Airport", "url": "https://en.wikipedia.org/wiki/?curid=333237", "coordinates": {"latitude": 38.18194, "longitude": 13.09944}}
{"title": "Airport at Chek Lap Kok", "url": "https://en.wikipedia.org/wiki/?curid=341337", "coordinates": {"latitude": 22.30889, "longitude": 113.91444}}
{"title": "Kimpo Airport", "url": "https://en.wikipedia.org/wiki/?curid=342373", "coordinates": {"latitude": 37.55806, "longitude": 126.79056}}
{"title": "William B. Hartsfield International Airport", "url": "https://en.wikipedia.org/wiki/?curid=347440", "coordinates": {"latitude": 33.63667, "longitude": -84.42806}}
{"title": "East Midlands Airport", "url": "https://en.wikipedia.org/wiki/?curid=349437", "coordinates": {"latitude": 52.833, "longitude": -1.333}}
{"title": "Amerigo Vespucci Airport", "url": "https://en.wikipedia.org/wiki/?curid=350159", "coordinates": {"latitude": 43.81, "longitude": 11.20389}}
{"title": "Faa'a International Airport", "url": "https://en.wikipedia.org/wiki/?curid=350949", "coordinates": {"latitude": -17.55667, "longitude": -149.61139}}
{"title": "Ushuaia – Malvinas Argentinas International Airport", "url": "https://en.wikipedia.org/wiki/?curid=352123", "coordinates": {"latitude": -54.84333, "longitude": -68.29444}}
{"title": "Taipei Songshan Airport", "url": "https://en.wikipedia.org/wiki/?curid=354629", "coordinates": {"latitude": 25.06944, "longitude": 121.55167}}
{"title": "Sungshan Airport", "url": "https://en.wikipedia.org/wiki/?curid=354630", "coordinates": {"latitude": 25.06944, "longitude": 121.55167}}
{"title": "Song Shan Airport", "url": "https://en.wikipedia.org/wiki/?curid=354631", "coordinates": {"latitude": 25.06944, "longitude": 121.55167}}
{"title": "Shanghai Pudong International Airport", "url": "https://en.wikipedia.org/wiki/?curid=354666", "coordinates": {"latitude": 31.14333, "longitude": 121.80528}}
{"title": "PuDong International Airport", "url": "https://en.wikipedia.org/wiki/?curid=354667", "coordinates": {"latitude": 31.14333, "longitude": 121.80528}}
{"title": "Pudong International Airport", "url": "https://en.wikipedia.org/wiki/?curid=354668", "coordinates": {"latitude": 31.14333, "longitude": 121.80528}}
{"title": "Stornoway Airport", "url": "https://en.wikipedia.org/wiki/?curid=355355", "coordinates": {"latitude": 58.21556, "longitude": -6.33111}}
{"title": "Pudong Airport", "url": "https://en.wikipedia.org/wiki/?curid=355878", "coordinates": {"latitude": 31.14333, "longitude": 121.80528}}
{"title": "Campbeltown Airport", "url": "https://en.wikipedia.org/wiki/?curid=356726", "coordinates": {"latitude": 55.4375, "longitude": -5.68806}}
{"title": "Eleftherios Venizelos International Airport", "url": "https://en.wikipedia.org/wiki/?curid=357109", "coordinates": {"latitude": 37.93639, "longitude": 23.94722}}
{"title": "Hellinikon International Airport", "url": "https://en.wikipedia.org/wiki/?curid=357110", "coordinates": {"latitude": 37.89833, "longitude": 23.72944}}
{"title": "Kahului International Airport", "url": "https://en.wikipedia.org/wiki/?curid=357281", "coordinates": {"latitude": 20.89861, "longitude": -156.43056}}
{"title": "Baghdad Airport", "url": "https://en.wikipedia.org/wiki/?curid=357877", "coordinates": {"latitude": 33.2625, "longitude": 44.23444}}
{"title": "Shannon International Airport", "url": "https://en.wikipedia.org/wiki/?curid=358441", "coordinates": {"latitude": 52.70194, "longitude": -8.92472}}
{"title": "Taipei Domestic Airport", "url": "https://en.wikipedia.org/wiki/?curid=358963", "coordinates": {"latitude": 25.06944, "longitude": 121.55167}}
{"title": "Brisbane Airport", "url": "https://en.wikipedia.org/wiki/?curid=358971", "coordinates": {"latitude": -27.38333, "longitude": 153.11833}}
{"title": "Legazpi Airport", "url": "https://en.wikipedia.org/wiki/?curid=359002", "coordinates": {"latitude": 13.15694, "longitude": 123.74611}}
{"title": "Lufthansa Airport Services Dresden GmbH", "url": "https://en.wikipedia.org/wiki/?curid=359067", "coordinates": {"latitude": 51.13444, "longitude": 13.76806}}
{"title": "Dulles Airport", "url": "https://en.wikipedia.org/wiki/?curid=360454", "coordinates": {"latitude": 38.94444, "longitude": -77.45583}}
{"title": "Kobe Airport", "url": "https://en.wikipedia.org/wiki/?curid=360676", "coordinates": {"latitude": 34.63278, "longitude": 135.22389}}
{"title": "Suvarnabhumi Airport", "url": "https://en.wikipedia.org/wiki/?curid=360700", "coordinates": {"latitude": 13.6925, "longitude": 100.75}}
{"title": "Kansai Airport", "url": "https://en.wikipedia.org/wiki/?curid=362986", "coordinates": {"latitude": 34.43056, "longitude": 135.23028}}
{"title": "Pointe-à-Pitre International Airport", "url": "https://en.wikipedia.org/wiki/?curid=363370", "coordinates": {"latitude": 16.26417, "longitude": -61.52583}}
{"title": "Hellenicon Airport", "url": "https://en.wikipedia.org/wiki/?curid=364688", "coordinates": {"latitude": 37.89833, "longitude": 23.72944}}
{"title": "Kimpo International Airport", "url": "https://en.wikipedia.org/wiki/?curid=365994", "coordinates": {"latitude": 37.55806, "longitude": 126.79056}}
{"title": "Sea-Tac Airport", "url": "https://en.wikipedia.org/wiki/?curid=366593", "coordinates": {"latitude": 47.44889, "longitude": -122.30944}}
{"title": "SeaTac Airport", "url": "https://en.wikipedia.org/wiki/?curid=366595", "coordinates": {"latitude": 47.44889, "longitude": -122.30944}}
{"title": "Seoul-Kimpo International Airport", "url": "https://en.wikipedia.org/wiki/?curid=366924", "coordinates": {"latitude": 37.55806, "longitude": 126.79056}}
{"title": "East Midlands airport", "url": "https://en.wikipedia.org/wiki/?curid=366984", "coordinates": {"latitude": 52.833, "longitude": -1.333}}
{"title": "Göteborg Landvetter Airport", "url": "https://en.wikipedia.org/wiki/?curid=367664", "coordinates": {"latitude": 57.66, "longitude": 12.29111}}
{"title": "Côte d' Azur International Airport", "url": "https://en.wikipedia.org/wiki/?curid=369226", "coordinates": {"latitude": 43.66528, "longitude": 7.215}}
{"title": "Columbia Metropolitan Airport", "url": "https://en.wikipedia.org/wiki/?curid=371130", "coordinates": {"latitude": 33.93889, "longitude": -81.11944}}
{"title": "JFK International Airport", "url": "https://en.wikipedia.org/wiki/?curid=371732", "coordinates": {"latitude": 40.63972, "longitude": -73.77889}}
{"title": "Komaki International Airport", "url": "https://en.wikipedia.org/wiki/?curid=372222", "coordinates": {"latitude": 35.255, "longitude": 136.92444}}
{"title": "Lod Airport massacre", "url": "https://en.wikipedia.org/wiki/?curid=373302", "coordinates": {"latitude": 31.995, "longitude": 34.89417}}
{"title": "Hartsfield Atlanta International Airport", "url": "https://en.wikipedia.org/wiki/?curid=374334", "coordinates": {"latitude": 33.63667, "longitude": -84.42806}}
{"title": "Atlanta Airport (Idaho)", "url": "https://en.wikipedia.org/wiki/?curid=374336", "coordinates": {"latitude": 43.81361, "longitude": -115.135}}
{"title": "Bern Airport", "url": "https://en.wikipedia.org/wiki/?curid=377087", "coordinates": {"latitude": 46.91222, "longitude": 7.49917}}
{"title": "Santa Barbara Municipal Airport", "url": "https://en.wikipedia.org/wiki/?curid=377339", "coordinates": {"latitude": 34.42611, "longitude": -119.84028}}
{"title": "Allama Iqbal International Airport", "url": "https://en.wikipedia.org/wiki/?curid=377377", "coordinates": {"latitude": 31.52139, "longitude": 74.40333}}
{"title": "Benazir Bhutto International Airport", "url": "https://en.wikipedia.org/wiki/?curid=377428", "coordinates": {"latitude": 33.61639, "longitude": 73.09917}}
{"title": "Lahore International Airport", "url": "https://en.wikipedia.org/wiki/?curid=377713", "coordinates": {"latitude": 31.52139, "longitude": 74.40333}}
{"title": "Mactan-Cebu International Airport", "url": "https://en.wikipedia.org/wiki/?curid=378287", "coordinates": {"latitude": 10.30722, "longitude": 123.97889}}
{"title": "Mactan International Airport", "url": "https://en.wikipedia.org/wiki/?curid=378296", "coordinates": {"latitude": 10.30722, "longitude": 123.97889}}
{"title": "Hermosillo International Airport", "url": "https://en.wikipedia.org/wiki/?curid=382348", "coordinates": {"latitude": 29.09583, "longitude": -111.04778}}
{"title": "DFW Airport", "url": "https://en.wikipedia.org/wiki/?curid=382377", "coordinates": {"latitude": 32.89694, "longitude": -97.03806}}
{"title": "Kastrup International Airport", "url": "https://en.wikipedia.org/wiki/?curid=383240", "coordinates": {"latitude": 55.61806, "longitude": 12.65611}}
{"title": "Don Mueang Airport", "url": "https://en.wikipedia.org/wiki/?curid=383377", "coordinates": {"latitude": 13.9125, "longitude": 100.60667}}
{"title": "London Biggin Hill Airport", "url": "https://en.wikipedia.org/wiki/?curid=383748", "coordinates": {"latitude": 51.33083, "longitude": 0.0325}}
{"title": "Tegel Airport", "url": "https://en.wikipedia.org/wiki/?curid=384075", "coordinates": {"latitude": 52.55972, "longitude": 13.28778}}
{"title": "London Southend Airport", "url": "https://en.wikipedia.org/wiki/?curid=384873", "coordinates": {"latitude": 51.57028, "longitude": 0.69333}}
{"title": "Asahikawa Airport", "url": "https://en.wikipedia.org/wiki/?curid=385083", "coordinates": {"latitude": 43.67083, "longitude": 142.4475}}
{"title": "Belp Airport", "url": "https://en.wikipedia.org/wiki/?curid=385147", "coordinates": {"latitude": 46.91222, "longitude": 7.49917}}
{"title": "Yao Airport", "url": "https://en.wikipedia.org/wiki/?curid=386333", "coordinates": {"latitude": 34.58556, "longitude": 135.60056}}
{"title": "Miami Executive Airport", "url": "https://en.wikipedia.org/wiki/?curid=388779", "coordinates": {"latitude": 25.64778, "longitude": -80.43278}}
{"title": "Arturo Michelena International Airport", "url": "https://en.wikipedia.org/wiki/?curid=390500", "coordinates": {"latitude": 10.15, "longitude": -67.92778}}
{"title": "Winnipeg James Armstrong Richardson International Airport", "url": "https://en.wikipedia.org/wiki/?curid=393443", "coordinates": {"latitude": 49.91, "longitude": -97.24}}
{"title": "O'Hare Airport", "url": "https://en.wikipedia.org/wiki/?curid=394959", "coordinates": {"latitude": 41.97861, "longitude": -87.90472}}
{"title": "Thiruvananthapuram International Airport", "url": "https://en.wikipedia.org/wiki/?curid=398113", "coordinates": {"latitude": 8.48, "longitude": 76.92}}
{"title": "Arturo Merino Benitez International Airport", "url": "https://en.wikipedia.org/wiki/?curid=398375", "coordinates": {"latitude": -33.39278, "longitude": -70.78556}}
{"title": "Cluj International Airport", "url": "https://en.wikipedia.org/wiki/?curid=399401", "coordinates": {"latitude": 46.785, "longitude": 23.68611}}
{"title": "Luxembourg Airport", "url": "https://en.wikipedia.org/wiki/?curid=400254", "coordinates": {"latitude": 49.62333, "longitude": 6.20444}}
{"title": "Minneapolis-St. Paul International Airport", "url": "https://en.wikipedia.org/wiki/?curid=400371", "coordinates": {"latitude": 44.88194, "longitude": -93.22167}}
{"title": "Las Vegas McCarran International Airport", "url": "https://en.wikipedia.org/wiki/?curid=400376", "coordinates": {"latitude": 36.08, "longitude": -115.15222}}
{"title": "Detroit Metro Wayne Airport", "url": "https://en.wikipedia.org/wiki/?curid=400377", "coordinates": {"latitude": 42.2125, "longitude": -83.35333}}
{"title": "Cluj-Napoca Someseni International Airport", "url": "https://en.wikipedia.org/wiki/?curid=400597", "coordinates": {"latitude": 46.785, "longitude": 23.68611}}
{"title": "Someseni International Airport", "url": "https://en.wikipedia.org/wiki/?curid=400601", "coordinates": {"latitude": 46.785, "longitude": 23.68611}}
{"title": "Stockholm Bromma Airport", "url": "https://en.wikipedia.org/wiki/?curid=402720", "coordinates": {"latitude": 59.35444, "longitude": 17.93972}}
{"title": "Tempelhof Airport", "url": "https://en.wikipedia.org/wiki/?curid=403750", "coordinates": {"latitude": 52.47361, "longitude": 13.40167}}
{"title": "Cote D' Azur International Airport", "url": "https://en.wikipedia.org/wiki/?curid=404525", "coordinates": {"latitude": 43.66528, "longitude": 7.215}}
{"title": "Tenerife Airport Disaster", "url": "https://en.wikipedia.org/wiki/?curid=406124", "coordinates": {"latitude": 28.48165, "longitude": -16.3384}}
{"title": "Burbank Airport", "url": "https://en.wikipedia.org/wiki/?curid=408146", "coordinates": {"latitude": 34.20056, "longitude": -118.35861}}
{"title": "Isla Grande Airport", "url": "https://en.wikipedia.org/wiki/?curid=411910", "coordinates": {"latitude": 18.45667, "longitude": -66.09833}}
{"title": "Capital International Airport", "url": "https://en.wikipedia.org/wiki/?curid=414188", "coordinates": {"latitude": 40.0725, "longitude": 116.5975}}
{"title": "Montreal Dorval International Airport", "url": "https://en.wikipedia.org/wiki/?curid=417533", "coordinates": {"latitude": 45.47056, "longitude": -73.74083}}
{"title": "Montreal-Trudeau International Airport", "url": "https://en.wikipedia.org/wiki/?curid=417536", "coordinates": {"latitude": 45.47056, "longitude": -73.74083}}
{"title": "Trudeau International Airport", "url": "https://en.wikipedia.org/wiki/?curid=417538", "coordinates": {"latitude": 45.47056, "longitude": -73.74083}}
{"title": "Trudeau Airport", "url": "https://en.wikipedia.org/wiki/?curid=417539", "coordinates": {"latitude": 45.47056, "longitude": -73.74083}}
{"title": "Montreal-Trudeau Airport", "url": "https://en.wikipedia.org/wiki/?curid=417540", "coordinates": {"latitude": 45.47056, "longitude": -73.74083}}
{"title": "Dorval Airport", "url": "https://en.wikipedia.org/wiki/?curid=417546", "coordinates": {"latitude": 45.47056, "longitude": -73.74083}}
{"title": "Chicago O' Hare International Airport", "url": "https://en.wikipedia.org/wiki/?curid=423177", "coordinates": {"latitude": 41.97861, "longitude": -87.90472}}
{"title": "Chung-cheng International Airport", "url": "https://en.wikipedia.org/wiki/?curid=423222", "coordinates": {"latitude": 25.07639, "longitude": 121.22389}}
{"title": "Zhongzheng International Airport", "url": "https://en.wikipedia.org/wiki/?curid=423223", "coordinates": {"latitude": 25.07639, "longitude": 121.22389}}
{"title": "Okadama Airport", "url": "https://en.wikipedia.org/wiki/?curid=423967", "coordinates": {"latitude": 43.1175, "longitude": 141.38139}}
{"title": "Guangzhou Baiyun International Airport (former)", "url": "https://en.wikipedia.org/wiki/?curid=424034", "coordinates": {"latitude": 23.18722, "longitude": 113.26806}}
{"title": "Hakodate Airport", "url": "https://en.wikipedia.org/wiki/?curid=424131", "coordinates": {"latitude": 41.77, "longitude": 140.82194}}
{"title": "Viru Viru International Airport", "url": "https://en.wikipedia.org/wiki/?curid=424308", "coordinates": {"latitude": -17.64472, "longitude": -63.13528}}
{"title": "Mineta San Jose International Airport", "url": "https://en.wikipedia.org/wiki/?curid=427102", "coordinates": {"latitude": 37.36278, "longitude": -121.92917}}
{"title": "Washington National Airport", "url": "https://en.wikipedia.org/wiki/?curid=427428", "coordinates": {"latitude": 38.85222, "longitude": -77.03778}}
{"title": "Qidé International Airport", "url": "https://en.wikipedia.org/wiki/?curid=430298", "coordinates": {"latitude": 22.32861, "longitude": 114.19417}}
{"title": "Qide International Airport", "url": "https://en.wikipedia.org/wiki/?curid=430300", "coordinates": {"latitude": 22.32861, "longitude": 114.19417}}
{"title": "Helsinki-Vantaa airport", "url": "https://en.wikipedia.org/wiki/?curid=431980", "coordinates": {"latitude": 60.31722, "longitude": 24.96333}}
{"title": "Airport in Chek Lap Kok", "url": "https://en.wikipedia.org/wiki/?curid=436828", "coordinates": {"latitude": 22.30889, "longitude": 113.91444}}
{"title": "Agadir–Al Massira Airport", "url": "https://en.wikipedia.org/wiki/?curid=439492", "coordinates": {"latitude": 30.325, "longitude": -9.41306}}
{"title": "Tokyo Narita Airport", "url": "https://en.wikipedia.org/wiki/?curid=445037", "coordinates": {"latitude": 35.76528, "longitude": 140.38556}}
{"title": "Tokyo Narita International Airport", "url": "https://en.wikipedia.org/wiki/?curid=445039", "coordinates": {"latitude": 35.76528, "longitude": 140.38556}}
{"title": "Erkilet International Airport", "url": "https://en.wikipedia.org/wiki/?curid=447649", "coordinates": {"latitude": 38.77028, "longitude": 35.49528}}
{"title": "Kayseri International Airport", "url": "https://en.wikipedia.org/wiki/?curid=447652", "coordinates": {"latitude": 38.77028, "longitude": 35.49528}}
{"title": "Rickenbacker International Airport", "url": "https://en.wikipedia.org/wiki/?curid=450045", "coordinates": {"latitude": 39.81389, "longitude": -82.92778}}
{"title": "Franz Josef Strauss International Airport", "url": "https://en.wikipedia.org/wiki/?curid=450184", "coordinates": {"latitude": 48.35389, "longitude": 11.78611}}
{"title": "Macao International Airport", "url": "https://en.wikipedia.org/wiki/?curid=450753", "coordinates": {"latitude": 22.14944, "longitude": 113.59139}}
{"title": "Molde Airport Årø", "url": "https://en.wikipedia.org/wiki/?curid=451930", "coordinates": {"latitude": 62.74472, "longitude": 7.2625}}
{"title": "Trondheim Airport Værnes", "url": "https://en.wikipedia.org/wiki/?curid=451932", "coordinates": {"latitude": 63.4575, "longitude": 10.92417}}
{"title": "Oslo Airport Gardermoen", "url": "https://en.wikipedia.org/wiki/?curid=452004", "coordinates": {"latitude": 60.20278, "longitude": 11.08389}}
{"title": "Manila International Airport", "url": "https://en.wikipedia.org/wiki/?curid=456359", "coordinates": {"latitude": 14.50833, "longitude": 121.01972}}
{"title": "Hong Kong Kai Tak Airport", "url": "https://en.wikipedia.org/wiki/?curid=456606", "coordinates": {"latitude": 22.32861, "longitude": 114.19417}}
{"title": "Ataturk International Airport", "url": "https://en.wikipedia.org/wiki/?curid=456786", "coordinates": {"latitude": 40.97611, "longitude": 28.81417}}
{"title": "Kuwait International Airport", "url": "https://en.wikipedia.org/wiki/?curid=464414", "coordinates": {"latitude": 29.22667, "longitude": 47.98}}
{"title": "Bahrain International Airport", "url": "https://en.wikipedia.org/wiki/?curid=464443", "coordinates": {"latitude": 26.27083, "longitude": 50.63361}}
{"title": "Sharjah International Airport", "url": "https://en.wikipedia.org/wiki/?curid=464461", "coordinates": {"latitude": 25.32917, "longitude": 55.51611}}
{"title": "Toronto Island Airport", "url": "https://en.wikipedia.org/wiki/?curid=465719", "coordinates": {"latitude": 43.62833, "longitude": -79.39611}}
{"title": "New York JFK International Airport", "url": "https://en.wikipedia.org/wiki/?curid=466932", "coordinates": {"latitude": 40.63972, "longitude": -73.77889}}
{"title": "Thessaloniki Airport", "url": "https://en.wikipedia.org/wiki/?curid=467461", "coordinates": {"latitude": 40.51972, "longitude": 22.97083}}
{"title": "King Khalid Airport", "url": "https://en.wikipedia.org/wiki/?curid=471183", "coordinates": {"latitude": 24.95778, "longitude": 46.69889}}
{"title": "King Khalid International Airport", "url": "https://en.wikipedia.org/wiki/?curid=471186", "coordinates": {"latitude": 24.95778, "longitude": 46.69889}}
{"title": "King Khaled International Airport", "url": "https://en.wikipedia.org/wiki/?curid=471189", "coordinates": {"latitude": 24.95778, "longitude": 46.69889}}
{"title": "Leeds East Airport", "url": "https://en.wikipedia.org/wiki/?curid=474901", "coordinates": {"latitude": 53.83444, "longitude": -1.19556}}
{"title": "Teterboro Airport", "url": "https://en.wikipedia.org/wiki/?curid=475231", "coordinates": {"latitude": 40.85, "longitude": -74.06083}}
{"title": "Kuwait Airport", "url": "https://en.wikipedia.org/wiki/?curid=479929", "coordinates": {"latitude": 29.22667, "longitude": 47.98}}
{"title": "Bromma Airport", "url": "https://en.wikipedia.org/wiki/?curid=480168", "coordinates": {"latitude": 59.35444, "longitude": 17.93972}}
{"title": "Lehigh Valley International Airport", "url": "https://en.wikipedia.org/wiki/?curid=480621", "coordinates": {"latitude": 40.652333, "longitude": -75.440472}}
{"title": "Sultan Abdul Aziz Shah Airport", "url": "https://en.wikipedia.org/wiki/?curid=484174", "coordinates": {"latitude": 3.13111, "longitude": 101.54806}}
{"title": "Kabul International Airport", "url": "https://en.wikipedia.org/wiki/?curid=487602", "coordinates": {"latitude": 34.56583, "longitude": 69.21306}}
{"title": "Abu Dhabi International Airport", "url": "https://en.wikipedia.org/wiki/?curid=487794", "coordinates": {"latitude": 24.43306, "longitude": 54.65111}}
{"title": "Al Ain International Airport", "url": "https://en.wikipedia.org/wiki/?curid=487817", "coordinates": {"latitude": 24.26167, "longitude": 55.60917}}
{"title": "Alain International Airport", "url": "https://en.wikipedia.org/wiki/?curid=487819", "coordinates": {"latitude": 24.26167, "longitude": 55.60917}}
{"title": "Al-Ain International Airport", "url": "https://en.wikipedia.org/wiki/?curid=487820", "coordinates": {"latitude": 24.26167, "longitude": 55.60917}}
{"title": "Abou Dhabi International Airport", "url": "https://en.wikipedia.org/wiki/?curid=487826", "coordinates": {"latitude": 24.43306, "longitude": 54.65111}}
{"title": "Abu Zabi International Airport", "url": "https://en.wikipedia.org/wiki/?curid=487827", "coordinates": {"latitude": 24.43306, "longitude": 54.65111}}
{"title": "Dubayy International Airport", "url": "https://en.wikipedia.org/wiki/?curid=487855", "coordinates": {"latitude": 25.25278, "longitude": 55.36444}}
{"title": "Dubay International Airport", "url": "https://en.wikipedia.org/wiki/?curid=487856", "coordinates": {"latitude": 25.25278, "longitude": 55.36444}}
{"title": "Doubai International Airport", "url": "https://en.wikipedia.org/wiki/?curid=487857", "coordinates": {"latitude": 25.25278, "longitude": 55.36444}}
{"title": "Cambeltown Airport", "url": "https://en.wikipedia.org/wiki/?curid=488654", "coordinates": {"latitude": 55.4375, "longitude": -5.68806}}
{"title": "Fujairah International Airport", "url": "https://en.wikipedia.org/wiki/?curid=489143", "coordinates": {"latitude": 25.11222, "longitude": 56.32417}}
{"title": "Sabiha Airport", "url": "https://en.wikipedia.org/wiki/?curid=489485", "coordinates": {"latitude": 40.89833, "longitude": 29.30917}}
{"title": "Hong Kong international Airport", "url": "https://en.wikipedia.org/wiki/?curid=497111", "coordinates": {"latitude": 22.30889, "longitude": 113.91444}}
{"title": "Glasgow-Prestwick Airport", "url": "https://en.wikipedia.org/wiki/?curid=497118", "coordinates": {"latitude": 55.50944, "longitude": -4.59444}}
{"title": "Bremen Airport", "url": "https://en.wikipedia.org/wiki/?curid=500570", "coordinates": {"latitude": 53.0475, "longitude": 8.78667}}
{"title": "CentrePort/DFW Airport station", "url": "https://en.wikipedia.org/wiki/?curid=503510", "coordinates": {"latitude": 32.817, "longitude": -97.0526}}
{"title": "Toyama Airport", "url": "https://en.wikipedia.org/wiki/?curid=508860", "coordinates": {"latitude": 36.64833, "longitude": 137.1875}}
{"title": "Yuzhno-Sakhalinsk Airport", "url": "https://en.wikipedia.org/wiki/?curid=508954", "coordinates": {"latitude": 46.88694, "longitude": 142.72194}}
{"title": "Pointe-a-Pitre International Airport", "url": "https://en.wikipedia.org/wiki/?curid=509903", "coordinates": {"latitude": 16.26417, "longitude": -61.52583}}
{"title": "Pointe a Pitre International Airport", "url": "https://en.wikipedia.org/wiki/?curid=509904", "coordinates": {"latitude": 16.26417, "longitude": -61.52583}}
{"title": "Pointe à Pitre International Airport", "url": "https://en.wikipedia.org/wiki/?curid=509905", "coordinates": {"latitude": 16.26417, "longitude": -61.52583}}
{"title": "Guam International Airport", "url": "https://en.wikipedia.org/wiki/?curid=512374", "coordinates": {"latitude": 13.48389, "longitude": 144.79722}}
{"title": "Kona International Airport", "url": "https://en.wikipedia.org/wiki/?curid=512376", "coordinates": {"latitude": 19.73889, "longitude": -156.04556}}
{"title": "Keahole Airport", "url": "https://en.wikipedia.org/wiki/?curid=512380", "coordinates": {"latitude": 19.73889, "longitude": -156.04556}}
{"title": "Savannah-Hilton Head International Airport", "url": "https://en.wikipedia.org/wiki/?curid=515183", "coordinates": {"latitude": 32.1275, "longitude": -81.20222}}
{"title": "Sywell airport", "url": "https://en.wikipedia.org/wiki/?curid=515693", "coordinates": {"latitude": 52.30611, "longitude": -0.79222}}
{"title": "Benito Juarez International Airport", "url": "https://en.wikipedia.org/wiki/?curid=523996", "coordinates": {"latitude": 19.43611, "longitude": -99.07194}}
{"title": "Pyongyang International Airport", "url": "https://en.wikipedia.org/wiki/?curid=531995", "coordinates": {"latitude": 39.22389, "longitude": 125.67}}
{"title": "Hannover Airport", "url": "https://en.wikipedia.org/wiki/?curid=536448", "coordinates": {"latitude": 52.460214, "longitude": 9.683522}}
{"title": "Chek Lap Kok Airport", "url": "https://en.wikipedia.org/wiki/?curid=544473", "coordinates": {"latitude": 22.30889, "longitude": 113.91444}}
{"title": "Duesseldorf International Airport", "url": "https://en.wikipedia.org/wiki/?curid=550452", "coordinates": {"latitude": 51.28944, "longitude": 6.76667}}
{"title": "New Bangkok International Airport", "url": "https://en.wikipedia.org/wiki/?curid=553802", "coordinates": {"latitude": 13.6925, "longitude": 100.75}}
{"title": "Birmingham (UK) International Airport", "url": "https://en.wikipedia.org/wiki/?curid=556002", "coordinates": {"latitude": 52.45389, "longitude": -1.74806}}
{"title": "Campinas International Airport", "url": "https://en.wikipedia.org/wiki/?curid=559051", "coordinates": {"latitude": -23.00694, "longitude": -47.13444}}
{"title": "New York International Airport", "url": "https://en.wikipedia.org/wiki/?curid=559080", "coordinates": {"latitude": 40.63972, "longitude": -73.77889}}
{"title": "Chōfu Airport", "url": "https://en.wikipedia.org/wiki/?curid=567981", "coordinates": {"latitude": 35.67167, "longitude": 139.52806}}
{"title": "Central Japan International Airport", "url": "https://en.wikipedia.org/wiki/?curid=568725", "coordinates": {"latitude": 34.85833, "longitude": 136.80528}}
{"title": "New Tokyo International Airport", "url": "https://en.wikipedia.org/wiki/?curid=571055", "coordinates": {"latitude": 35.76528, "longitude": 140.38556}}
{"title": "Beijing Capital Airport", "url": "https://en.wikipedia.org/wiki/?curid=571157", "coordinates": {"latitude": 40.0725, "longitude": 116.5975}}
{"title": "Arlanda International Airport", "url": "https://en.wikipedia.org/wiki/?curid=574189", "coordinates": {"latitude": 59.65194, "longitude": 17.91861}}
{"title": "Schonefeld International Airport", "url": "https://en.wikipedia.org/wiki/?curid=574219", "coordinates": {"latitude": 52.37861, "longitude": 13.52056}}
{"title": "Schoenefeld International Airport", "url": "https://en.wikipedia.org/wiki/?curid=574221", "coordinates": {"latitude": 52.37861, "longitude": 13.52056}}
{"title": "Suvarnabhumi International Airport", "url": "https://en.wikipedia.org/wiki/?curid=576452", "coordinates": {"latitude": 13.6925, "longitude": 100.75}}
{"title": "Saskatoon John G. Diefenbaker International Airport", "url": "https://en.wikipedia.org/wiki/?curid=577750", "coordinates": {"latitude": 52.17083, "longitude": -106.7}}
{"title": "Ingeniero Aeronáutico Ambrosio L.V. Taravella International Airport", "url": "https://en.wikipedia.org/wiki/?curid=584606", "coordinates": {"latitude": -31.31, "longitude": -64.20833}}
{"title": "Hukuoka Airport", "url": "https://en.wikipedia.org/wiki/?curid=588145", "coordinates": {"latitude": 33.58444, "longitude": 130.45167}}
{"title": "New Titose Airport", "url": "https://en.wikipedia.org/wiki/?curid=588182", "coordinates": {"latitude": 42.77528, "longitude": 141.6925}}
{"title": "Merrill C. Meigs Field Airport", "url": "https://en.wikipedia.org/wiki/?curid=588293", "coordinates": {"latitude": 41.86, "longitude": -87.60861}}
{"title": "Cairo International Airport", "url": "https://en.wikipedia.org/wiki/?curid=589227", "coordinates": {"latitude": 30.12194, "longitude": 31.40556}}
{"title": "Sedona Airport", "url": "https://en.wikipedia.org/wiki/?curid=597835", "coordinates": {"latitude": 34.85, "longitude": -111.79}}
{"title": "Las Américas International Airport", "url": "https://en.wikipedia.org/wiki/?curid=599919", "coordinates": {"latitude": 18.42944, "longitude": -69.66889}}
{"title": "Rafael Hernandez International Airport", "url": "https://en.wikipedia.org/wiki/?curid=600994", "coordinates": {"latitude": 18.495, "longitude": -67.12944}}
{"title": "Paris–Le Bourget Airport", "url": "https://en.wikipedia.org/wiki/?curid=606404", "coordinates": {"latitude": 48.96, "longitude": 2.435}}
{"title": "Karachi International Airport", "url": "https://en.wikipedia.org/wiki/?curid=617194", "coordinates": {"latitude": 24.90667, "longitude": 67.16083}}
{"title": "Moorabbin Airport", "url": "https://en.wikipedia.org/wiki/?curid=617401", "coordinates": {"latitude": -37.97583, "longitude": 145.10222}}
{"title": "Quad Cities International Airport", "url": "https://en.wikipedia.org/wiki/?curid=622257", "coordinates": {"latitude": 41.44861, "longitude": -90.5075}}
{"title": "Logan Airport", "url": "https://en.wikipedia.org/wiki/?curid=622933", "coordinates": {"latitude": 42.36306, "longitude": -71.00639}}
{"title": "Ernesto Cortizzos International airport", "url": "https://en.wikipedia.org/wiki/?curid=627609", "coordinates": {"latitude": 10.88944, "longitude": -74.78056}}
{"title": "Okecie International Airport", "url": "https://en.wikipedia.org/wiki/?curid=627800", "coordinates": {"latitude": 52.16583, "longitude": 20.96722}}
{"title": "Antonio Maceo Airport", "url": "https://en.wikipedia.org/wiki/?curid=628453", "coordinates": {"latitude": 19.97, "longitude": -75.83556}}
{"title": "Christchurch Airport", "url": "https://en.wikipedia.org/wiki/?curid=629022", "coordinates": {"latitude": -43.48944, "longitude": 172.53222}}
{"title": "Gold Coast Airport", "url": "https://en.wikipedia.org/wiki/?curid=630117", "coordinates": {"latitude": -28.165, "longitude": 153.50611}}
{"title": "Horan International Airport", "url": "https://en.wikipedia.org/wiki/?curid=633284", "coordinates": {"latitude": 53.91028, "longitude": -8.81861}}
{"title": "Ireland West Airport", "url": "https://en.wikipedia.org/wiki/?curid=633285", "coordinates": {"latitude": 53.91028, "longitude": -8.81861}}
{"title": "Knock Airport", "url": "https://en.wikipedia.org/wiki/?curid=633289", "coordinates": {"latitude": 53.91028, "longitude": -8.81861}}
{"title": "Horan Airport", "url": "https://en.wikipedia.org/wiki/?curid=633300", "coordinates": {"latitude": 53.91028, "longitude": -8.81861}}
{"title": "Warsaw Chopin Airport", "url": "https://en.wikipedia.org/wiki/?curid=636093", "coordinates": {"latitude": 52.16583, "longitude": 20.96722}}
{"title": "George F. L. Charles Airport", "url": "https://en.wikipedia.org/wiki/?curid=641851", "coordinates": {"latitude": 14.02028, "longitude": -60.99306}}
{"title": "Vigie Airport", "url": "https://en.wikipedia.org/wiki/?curid=641852", "coordinates": {"latitude": 14.02028, "longitude": -60.99306}}
{"title": "Karlsruhe/Baden-Baden Airport", "url": "https://en.wikipedia.org/wiki/?curid=644973", "coordinates": {"latitude": 48.77944, "longitude": 8.08056}}
{"title": "Inchon International Airport", "url": "https://en.wikipedia.org/wiki/?curid=645440", "coordinates": {"latitude": 37.46333, "longitude": 126.44}}
{"title": "Klagenfurt Airport", "url": "https://en.wikipedia.org/wiki/?curid=650612", "coordinates": {"latitude": 46.64278, "longitude": 14.33722}}
{"title": "Northeast Philadelphia Airport", "url": "https://en.wikipedia.org/wiki/?curid=652169", "coordinates": {"latitude": 40.08194, "longitude": -75.01056}}
{"title": "Eugenio María de Hostos Airport", "url": "https://en.wikipedia.org/wiki/?curid=660700", "coordinates": {"latitude": 18.25556, "longitude": -67.14833}}
{"title": "Ronald Reagan Washington National Airport station", "url": "https://en.wikipedia.org/wiki/?curid=662541", "coordinates": {"latitude": 38.852985, "longitude": -77.0439}}
{"title": "Cochin International Airport", "url": "https://en.wikipedia.org/wiki/?curid=667462", "coordinates": {"latitude": 10.1533333, "longitude": 76.3881639}}
{"title": "Basel-Mulhouse International Airport", "url": "https://en.wikipedia.org/wiki/?curid=668063", "coordinates": {"latitude": 47.59, "longitude": 7.52917}}
{"title": "Peter O. Knight Airport", "url": "https://en.wikipedia.org/wiki/?curid=668330", "coordinates": {"latitude": 27.91556, "longitude": -82.44917}}
{"title": "Drew Field Municipal Airport", "url": "https://en.wikipedia.org/wiki/?curid=668353", "coordinates": {"latitude": 27.97972, "longitude": -82.53472}}
{"title": "Cleveland-Hopkins International Airport", "url": "https://en.wikipedia.org/wiki/?curid=669756", "coordinates": {"latitude": 41.41167, "longitude": -81.84972}}
{"title": "Detroit Metro-Wayne International Airport", "url": "https://en.wikipedia.org/wiki/?curid=669768", "coordinates": {"latitude": 42.2125, "longitude": -83.35333}}
{"title": "Groton–New London Airport", "url": "https://en.wikipedia.org/wiki/?curid=670355", "coordinates": {"latitude": 41.33, "longitude": -72.045}}
{"title": "Tweed New Haven Airport", "url": "https://en.wikipedia.org/wiki/?curid=670411", "coordinates": {"latitude": 41.26389, "longitude": -72.88667}}
{"title": "De Gaulle Airport", "url": "https://en.wikipedia.org/wiki/?curid=674685", "coordinates": {"latitude": 49.00972, "longitude": 2.54778}}
{"title": "International Airport of Baghdad", "url": "https://en.wikipedia.org/wiki/?curid=676506", "coordinates": {"latitude": 33.2625, "longitude": 44.23444}}
{"title": "Kaohsiung International Airport", "url": "https://en.wikipedia.org/wiki/?curid=680596", "coordinates": {"latitude": 22.57694, "longitude": 120.35}}
{"title": "Longreach Airport", "url": "https://en.wikipedia.org/wiki/?curid=681210", "coordinates": {"latitude": -23.43139, "longitude": 144.27806}}
{"title": "Ottawa International Airport", "url": "https://en.wikipedia.org/wiki/?curid=681563", "coordinates": {"latitude": 45.3225, "longitude": -75.66722}}
{"title": "Mojave Airport", "url": "https://en.wikipedia.org/wiki/?curid=685039", "coordinates": {"latitude": 35.05944, "longitude": -118.15167}}
{"title": "Bristol Airport", "url": "https://en.wikipedia.org/wiki/?curid=699624", "coordinates": {"latitude": 51.38278, "longitude": -2.71917}}
{"title": "Chișinău International Airport", "url": "https://en.wikipedia.org/wiki/?curid=700758", "coordinates": {"latitude": 46.92778, "longitude": 28.93083}}
{"title": "Ciampino–G. B. Pastine International Airport", "url": "https://en.wikipedia.org/wiki/?curid=701658", "coordinates": {"latitude": 41.79944, "longitude": 12.59722}}
{"title": "Rafael Hernandez Airport", "url": "https://en.wikipedia.org/wiki/?curid=702366", "coordinates": {"latitude": 18.495, "longitude": -67.12944}}
{"title": "Phnom Penh International Airport", "url": "https://en.wikipedia.org/wiki/?curid=702431", "coordinates": {"latitude": 11.54639, "longitude": 104.84389}}
{"title": "Eugenio Maria de Hostos Airport", "url": "https://en.wikipedia.org/wiki/?curid=702452", "coordinates": {"latitude": 18.25556, "longitude": -67.14833}}
{"title": "Juan Alvarez International Airport", "url": "https://en.wikipedia.org/wiki/?curid=702517", "coordinates": {"latitude": 16.756028, "longitude": -99.751611}}
{"title": "Kristiansund Airport", "url": "https://en.wikipedia.org/wiki/?curid=705358", "coordinates": {"latitude": 63.11194, "longitude": 7.82611}}
{"title": "Franz Josef Strauß International Airport", "url": "https://en.wikipedia.org/wiki/?curid=706430", "coordinates": {"latitude": 48.35389, "longitude": 11.78611}}
{"title": "Reagan Airport", "url": "https://en.wikipedia.org/wiki/?curid=706542", "coordinates": {"latitude": 38.85222, "longitude": -77.03778}}
{"title": "Victoria International Airport", "url": "https://en.wikipedia.org/wiki/?curid=708609", "coordinates": {"latitude": 48.64722, "longitude": -123.42583}}
{"title": "Geelong Airport", "url": "https://en.wikipedia.org/wiki/?curid=708718", "coordinates": {"latitude": -38.22528, "longitude": 144.33306}}
{"title": "Manston Airport", "url": "https://en.wikipedia.org/wiki/?curid=710837", "coordinates": {"latitude": 51.34222, "longitude": 1.34611}}
{"title": "Regina International Airport", "url": "https://en.wikipedia.org/wiki/?curid=713844", "coordinates": {"latitude": 50.43222, "longitude": -104.66611}}
{"title": "Charlottetown Airport", "url": "https://en.wikipedia.org/wiki/?curid=713875", "coordinates": {"latitude": 46.28917, "longitude": -63.11528}}
{"title": "Augusto C. Sandino International Airport", "url": "https://en.wikipedia.org/wiki/?curid=714348", "coordinates": {"latitude": 12.14139, "longitude": -86.16806}}
{"title": "Augusto César Sandino International Airport", "url": "https://en.wikipedia.org/wiki/?curid=714356", "coordinates": {"latitude": 12.14139, "longitude": -86.16806}}
{"title": "José Joaquín de Olmedo International Airport", "url": "https://en.wikipedia.org/wiki/?curid=715410", "coordinates": {"latitude": -2.1575, "longitude": -79.88361}}
